SchoolName,Latitude,Longitude,City,CommunitySchool,EconomicNeedIndex,SchoolIncomeEstimate,PercentELL,PercentAsian,PercentBlack,PercentHispanic,PercentBlackHispanic,PercentWhite,StudentAttendanceRate,PercentofStudentsChronicallyAbsent,RigorousInstruction,CollaborativeTeachers,SupportiveEnvironment,EffectiveSchoolLeadership,StrongFamilyCommunityTies,Trust,AverageELAProficiency,Grade3ELAAllStudentsTested,Grade3ELA4sAllStudents,Grade3ELA4sAmericanIndianorAlaskaNative,Grade3ELA4sBlackorAfricanAmerican,Grade3ELA4sHispanicorLatino,Grade3ELA4sAsianorPacificIslander,Grade3ELA4sWhite,Grade3ELA4sMultiracial,Grade3ELA4sLimitedEnglishProficient,Grade3ELA4sEconomicallyDisadvantaged,Grade3MathAllStudentstested,Grade3Math4sAllStudents,Grade3Math4sAmericanIndianorAlaskaNative,Grade3Math4sBlackorAfricanAmerican,Grade3Math4sHispanicorLatino,Grade3Math4sAsianorPacificIslander,Grade3Math4sWhite,Grade3Math4sMultiracial,Grade3Math4sLimitedEnglishProficient,Grade3Math4sEconomicallyDisadvantaged,Grade4ELAAllStudentsTested,Grade4ELA4sAllStudents,Grade4ELA4sAmericanIndianorAlaskaNative,Grade4ELA4sBlackorAfricanAmerican,Grade4ELA4sHispanicorLatino,Grade4ELA4sAsianorPacificIslander,Grade4ELA4sWhite,Grade4ELA4sMultiracial,Grade4ELA4sLimitedEnglishProficient,Grade4ELA4sEconomicallyDisadvantaged,Grade4MathAllStudentsTested,Grade4Math4sAllStudents,Grade4Math4sAmericanIndianorAlaskaNative,Grade4Math4sBlackorAfricanAmerican,Grade4Math4sHispanicorLatino,Grade4Math4sAsianorPacificIslander,Grade4Math4sWhite,Grade4Math4sMultiracial,Grade4Math4sLimitedEnglishProficient,Grade4Math4sEconomicallyDisadvantaged,Grade5ELAAllStudentsTested,Grade5ELA4sAllStudents,Grade5ELA4sAmericanIndianorAlaskaNative,Grade5ELA4sBlackorAfricanAmerican,Grade5ELA4sHispanicorLatino,Grade5ELA4sAsianorPacificIslander,Grade5ELA4sWhite,Grade5ELA4sMultiracial,Grade5ELA4sLimitedEnglishProficient,Grade5ELA4sEconomicallyDisadvantaged,Grade5MathAllStudentsTested,Grade5Math4sAllStudents,Grade5Math4sAmericanIndianorAlaskaNative,Grade5Math4sBlackorAfricanAmerican,Grade5Math4sHispanicorLatino,Grade5Math4sAsianorPacificIslander,Grade5Math4sWhite,Grade5Math4sMultiracial,Grade5Math4sLimitedEnglishProficient,Grade5Math4sEconomicallyDisadvantaged,Grade6ELAAllStudentsTested,Grade6ELA4sAllStudents,Grade6ELA4sAmericanIndianorAlaskaNative,Grade6ELA4sBlackorAfricanAmerican,Grade6ELA4sHispanicorLatino,Grade6ELA4sAsianorPacificIslander,Grade6ELA4sWhite,Grade6ELA4sMultiracial,Grade6ELA4sLimitedEnglishProficient,Grade6ELA4sEconomicallyDisadvantaged,Grade6MathAllStudentsTested,Grade6Math4sAllStudents,Grade6Math4sAmericanIndianorAlaskaNative,Grade6Math4sBlackorAfricanAmerican,Grade6Math4sHispanicorLatino,Grade6Math4sAsianorPacificIslander,Grade6Math4sWhite,Grade6Math4sMultiracial,Grade6Math4sLimitedEnglishProficient,Grade6Math4sEconomicallyDisadvantaged,Grade7ELAAllStudentsTested,Grade7ELA4sAllStudents,Grade7ELA4sAmericanIndianorAlaskaNative,Grade7ELA4sBlackorAfricanAmerican,Grade7ELA4sHispanicorLatino,Grade7ELA4sAsianorPacificIslander,Grade7ELA4sWhite,Grade7ELA4sMultiracial,Grade7ELA4sLimitedEnglishProficient,Grade7ELA4sEconomicallyDisadvantaged,Grade7MathAllStudentsTested,Grade7Math4sAllStudents,Grade7Math4sAmericanIndianorAlaskaNative,Grade7Math4sBlackorAfricanAmerican,Grade7Math4sHispanicorLatino,Grade7Math4sAsianorPacificIslander,Grade7Math4sWhite,Grade7Math4sMultiracial,Grade7Math4sLimitedEnglishProficient,Grade7Math4sEconomicallyDisadvantaged,Grade8ELAAllStudentsTested,Grade8ELA4sAllStudents,Grade8ELA4sAmericanIndianorAlaskaNative,Grade8ELA4sBlackorAfricanAmerican,Grade8ELA4sHispanicorLatino,Grade8ELA4sAsianorPacificIslander,Grade8ELA4sWhite,Grade8ELA4sMultiracial,Grade8ELA4sLimitedEnglishProficient,Grade8ELA4sEconomicallyDisadvantaged,Grade8MathAllStudentsTested,Grade8Math4sAllStudents,Grade8Math4sAmericanIndianorAlaskaNative,Grade8Math4sBlackorAfricanAmerican,Grade8Math4sHispanicorLatino,Grade8Math4sAsianorPacificIslander,Grade8Math4sWhite,Grade8Math4sMultiracial,Grade8Math4sLimitedEnglishProficient,Grade8Math4sEconomicallyDisadvantaged
P.S. 015 ROBERTO CLEMENTE,40.721834,-73.978766,NEW YORK,Yes,0.919,311.4172,0.09,0.05,0.32,0.6,0.92,0.01,0.94,0.18,0.89,0.94,0.86,0.91,0.85,0.94,2.14,20,0,0,0,0,0,0,0,0,0,21,0,0,0,0,0,0,0,0,0,15,0,0,0,0,0,0,0,0,0,15,2,0,0,0,0,0,0,0,0,16,0,0,0,0,0,0,0,0,0,16,0,0,0,0,0,0,0,0,0,0,0,0,0,0,0,0,0,0,0,0,0,0,0,0,0,0,0,0,0,0,0,0,0,0,0,0,0,0,0,0,0,0,0,0,0,0,0,0,0,0,0,0,0,0,0,0,0,0,0,0,0,0,0,0,0,0,0,0,0
P.S. 019 ASHER LEVY,40.729892,-73.984231,NEW YORK,No,0.641,564.6288,0.05,0.1,0.2,0.63,0.83,0.06,0.92,0.3,0.96,0.96,0.97,0.9,0.86,0.94,2.63,33,2,0,1,1,0,0,0,0,0,33,6,0,2,1,0,0,0,0,4,29,5,0,0,3,0,0,0,0,3,28,10,0,0,6,0,0,0,0,8,32,7,0,3,1,2,0,0,0,6,32,4,0,0,1,2,0,0,0,3,0,0,0,0,0,0,0,0,0,0,0,0,0,0,0,0,0,0,0,0,0,0,0,0,0,0,0,0,0,0,0,0,0,0,0,0,0,0,0,0,0,0,0,0,0,0,0,0,0,0,0,0,0,0,0,0,0,0,0,0
P.S. 020 ANNA SILVER,40.721274,-73.986315,NEW YORK,No,0.744,443.4261,0.15,0.35,0.08,0.49,0.57,0.04,0.94,0.2,0.87,0.77,0.82,0.61,0.8,0.79,2.39,76,6,0,0,0,4,0,0,0,2,76,11,0,0,3,7,0,0,0,6,70,9,0,0,1,6,2,0,0,1,71,13,0,0,0,11,2,0,0,4,73,2,0,0,1,1,0,0,0,0,73,10,0,0,1,9,0,0,1,6,0,0,0,0,0,0,0,0,0,0,0,0,0,0,0,0,0,0,0,0,0,0,0,0,0,0,0,0,0,0,0,0,0,0,0,0,0,0,0,0,0,0,0,0,0,0,0,0,0,0,0,0,0,0,0,0,0,0,0,0
P.S. 034 FRANKLIN D. ROOSEVELT,40.726147,-73.975043,NEW YORK,No,0.86,314.54,0.07,0.05,0.29,0.63,0.92,0.04,0.92,0.28,0.85,0.78,0.82,0.73,0.89,0.88,2.48,27,0,0,0,0,0,0,0,0,0,29,4,0,0,2,0,0,0,0,0,35,1,0,0,1,0,0,0,0,0,34,1,0,0,1,0,0,0,0,0,29,0,0,0,0,0,0,0,0,0,29,1,0,0,1,0,0,0,0,0,54,3,0,0,1,0,0,0,0,3,54,3,0,0,0,0,0,0,0,3,55,4,0,0,3,0,0,0,0,0,55,3,0,0,3,0,0,0,0,0,47,1,0,0,0,0,0,0,0,0,48,1,0,0,0,0,0,0,0,0
THE STAR ACADEMY - P.S.63,40.724404,-73.98636,NEW YORK,No,0.73,464.3559,0.03,0.04,0.2,0.65,0.84,0.1,0.93,0.23,0.9,0.88,0.87,0.81,0.89,0.93,2.38,21,2,0,0,2,0,0,0,0,0,21,5,0,0,2,0,0,0,0,2,15,2,0,1,0,0,0,0,0,0,15,3,0,1,0,0,0,0,0,0,12,1,0,0,0,0,0,0,0,1,12,2,0,0,0,0,0,0,0,2,0,0,0,0,0,0,0,0,0,0,0,0,0,0,0,0,0,0,0,0,0,0,0,0,0,0,0,0,0,0,0,0,0,0,0,0,0,0,0,0,0,0,0,0,0,0,0,0,0,0,0,0,0,0,0,0,0,0,0,0
P.S. 064 ROBERT SIMON,40.723747,-73.981602,NEW YORK,No,0.858,394.1545,0.06,0.07,0.19,0.66,0.84,0.07,0.92,0.33,0.93,0.99,0.95,0.91,0.88,0.97,2.29,29,1,0,0,0,0,0,0,0,0,31,4,0,0,1,0,0,0,0,0,40,2,0,0,2,0,0,0,0,2,40,4,0,0,1,0,0,0,0,3,42,0,0,0,0,0,0,0,0,0,44,5,0,2,1,0,0,0,0,0,0,0,0,0,0,0,0,0,0,0,0,0,0,0,0,0,0,0,0,0,0,0,0,0,0,0,0,0,0,0,0,0,0,0,0,0,0,0,0,0,0,0,0,0,0,0,0,0,0,0,0,0,0,0,0,0,0,0,0,0
P.S. 110 FLORENCE NIGHTINGALE,40.715293,-73.979927,NEW YORK,No,0.499,437.0673,0.01,0.16,0.1,0.43,0.53,0.27,0.95,0.13,0.88,0.78,0.95,0.69,0.87,0.78,2.8,81,12,0,1,1,3,7,0,0,6,81,37,0,0,11,12,10,0,0,20,49,15,0,0,4,0,9,0,0,4,49,23,0,0,6,0,12,0,0,6,65,16,0,1,5,0,6,0,0,4,65,18,0,1,5,0,6,0,0,5,0,0,0,0,0,0,0,0,0,0,0,0,0,0,0,0,0,0,0,0,0,0,0,0,0,0,0,0,0,0,0,0,0,0,0,0,0,0,0,0,0,0,0,0,0,0,0,0,0,0,0,0,0,0,0,0,0,0,0,0
P.S. 134 HENRIETTA SZOLD,40.714301,-73.982966,NEW YORK,No,0.833,288.2067,0.12,0.21,0.2,0.55,0.75,0.03,0.91,0.36,0.87,0.89,0.88,0.88,0.79,0.94,2.28,35,0,0,0,0,0,0,0,0,0,36,6,0,0,1,4,0,0,1,0,43,3,0,0,1,2,0,0,0,0,43,6,0,0,0,6,0,0,0,0,34,5,0,0,5,0,0,0,0,0,34,7,0,0,6,0,0,0,0,7,0,0,0,0,0,0,0,0,0,0,0,0,0,0,0,0,0,0,0,0,0,0,0,0,0,0,0,0,0,0,0,0,0,0,0,0,0,0,0,0,0,0,0,0,0,0,0,0,0,0,0,0,0,0,0,0,0,0,0,0
P.S. 140 NATHAN STRAUS,40.719128,-73.983283,NEW YORK,No,0.849,348.8924,0.14,0.05,0.13,0.78,0.9,0.03,0.93,0.27,0.94,0.91,0.85,0.87,0.83,0.93,2.21,28,0,0,0,0,0,0,0,0,0,28,0,0,0,0,0,0,0,0,0,31,0,0,0,0,0,0,0,0,0,32,1,0,0,1,0,0,0,0,0,21,0,0,0,0,0,0,0,0,0,21,0,0,0,0,0,0,0,0,0,54,0,0,0,0,0,0,0,0,0,56,5,0,1,2,0,0,0,0,3,47,2,0,0,2,0,0,0,0,0,46,1,0,0,0,1,0,0,0,1,61,3,0,0,1,0,0,0,0,1,61,2,0,0,1,0,0,0,0,1
P.S. 142 AMALIA CASTRO,40.71823,-73.984082,NEW YORK,No,0.861,355.451,0.08,0.06,0.11,0.78,0.9,0.02,0.92,0.27,0.92,0.89,0.9,0.83,0.89,0.95,2.16,40,1,0,0,1,0,0,0,0,0,38,1,0,0,1,0,0,0,0,0,58,4,0,0,3,0,0,0,0,0,55,2,0,0,0,0,0,0,0,0,46,1,0,0,1,0,0,0,0,0,47,1,0,0,1,0,0,0,0,0,0,0,0,0,0,0,0,0,0,0,0,0,0,0,0,0,0,0,0,0,0,0,0,0,0,0,0,0,0,0,0,0,0,0,0,0,0,0,0,0,0,0,0,0,0,0,0,0,0,0,0,0,0,0,0,0,0,0,0,0
P.S. 184M SHUANG WEN,40.711437,-73.985486,NEW YORK,No,0.559,408.099,0.17,0.71,0.04,0.12,0.15,0.09,0.98,0.02,0.9,0.81,0.91,0.67,0.83,0.85,3.24,59,8,0,0,2,6,0,0,0,4,59,40,0,0,3,34,0,0,5,27,60,7,0,0,0,7,0,0,0,6,61,32,0,0,0,30,0,0,6,24,63,20,0,0,0,13,0,0,0,11,65,42,0,0,0,32,0,0,1,26,76,29,0,0,0,26,2,0,0,20,82,43,0,0,0,39,3,0,3,32,72,22,0,0,2,14,3,0,0,15,72,36,0,0,2,29,4,0,0,29,46,23,0,0,0,19,0,0,0,16,48,28,0,0,0,25,0,0,2,21
P.S. 188 THE ISLAND SCHOOL,40.71987,-73.977376,NEW YORK,Yes,0.917,278.8159,0.16,0.02,0.3,0.64,0.93,0.04,0.91,0.37,1,1,0.99,0.99,0.92,0.99,2.17,40,0,0,0,0,0,0,0,0,0,40,1,0,0,1,0,0,0,0,0,37,1,0,0,0,0,0,0,0,1,38,3,0,0,1,0,0,0,0,3,48,0,0,0,0,0,0,0,0,0,50,0,0,0,0,0,0,0,0,0,48,2,0,0,2,0,0,0,0,2,51,14,0,0,13,0,0,0,0,13,54,0,0,0,0,0,0,0,0,0,54,1,0,0,1,0,0,0,0,1,50,0,0,0,0,0,0,0,0,0,50,3,0,0,3,0,0,0,0,3
THE EAST VILLAGE COMMUNITY SCHOOL,40.727726,-73.978382,NEW YORK,No,0.362,637.6,0.01,0.09,0.09,0.21,0.29,0.55,0.95,0.11,0.9,0.93,0.94,0.93,0.97,0.96,2.86,35,2,0,0,0,0,1,0,0,0,35,23,0,0,0,0,16,0,0,3,32,6,0,0,1,0,5,0,0,2,31,7,0,0,1,0,5,0,0,1,18,4,0,0,1,0,0,0,0,0,18,5,0,0,2,0,0,0,0,0,0,0,0,0,0,0,0,0,0,0,0,0,0,0,0,0,0,0,0,0,0,0,0,0,0,0,0,0,0,0,0,0,0,0,0,0,0,0,0,0,0,0,0,0,0,0,0,0,0,0,0,0,0,0,0,0,0,0,0,0
THE CHILDREN'S WORKSHOP SCHOOL,40.727726,-73.978382,NEW YORK,No,0.451,625.1957,0.07,0.1,0.1,0.39,0.49,0.38,0.93,0.23,0.97,0.97,0.97,0.96,0.93,0.94,2.89,22,3,0,0,1,0,1,0,0,2,22,7,0,0,2,0,2,0,0,3,23,3,0,0,0,0,0,0,0,2,23,5,0,0,0,0,3,0,0,2,31,11,0,0,1,0,8,0,0,3,31,9,0,0,0,0,7,0,0,1,0,0,0,0,0,0,0,0,0,0,0,0,0,0,0,0,0,0,0,0,0,0,0,0,0,0,0,0,0,0,0,0,0,0,0,0,0,0,0,0,0,0,0,0,0,0,0,0,0,0,0,0,0,0,0,0,0,0,0,0
NEIGHBORHOOD SCHOOL,40.724404,-73.98636,NEW YORK,No,0.43,575.0448,0.04,0.05,0.13,0.34,0.47,0.45,0.93,0.23,0.99,0.97,0.95,0.96,0.95,0.99,2.55,10,0,0,0,0,0,0,0,0,0,9,0,0,0,0,0,0,0,0,0,6,0,0,0,0,0,0,0,0,0,6,1,0,0,0,0,0,0,0,0,17,1,0,0,0,0,1,0,0,0,17,0,0,0,0,0,0,0,0,0,0,0,0,0,0,0,0,0,0,0,0,0,0,0,0,0,0,0,0,0,0,0,0,0,0,0,0,0,0,0,0,0,0,0,0,0,0,0,0,0,0,0,0,0,0,0,0,0,0,0,0,0,0,0,0,0,0,0,0,0
EARTH SCHOOL,40.723747,-73.981602,NEW YORK,No,0.448,567.872,0.06,0.07,0.13,0.35,0.48,0.37,0.94,0.15,0.96,0.99,0.96,0.98,0.96,0.98,3.1,11,0,0,0,0,0,0,0,0,0,11,3,0,0,0,0,1,0,0,0,12,2,0,0,0,0,0,0,0,0,13,3,0,0,0,0,3,0,0,0,20,7,0,0,0,0,4,0,0,1,19,8,0,0,0,0,5,0,0,1,0,0,0,0,0,0,0,0,0,0,0,0,0,0,0,0,0,0,0,0,0,0,0,0,0,0,0,0,0,0,0,0,0,0,0,0,0,0,0,0,0,0,0,0,0,0,0,0,0,0,0,0,0,0,0,0,0,0,0,0
"NEW EXPLORATIONS INTO SCIENCE, TECHNOLOGY AND MATH HIGH SCHOOL",40.7195,-73.979239,NEW YORK,No,0.257,768.3396,0,0.33,0.09,0.11,0.2,0.42,0.97,0.03,0.81,0.73,0.85,0.55,0.81,0.74,3.83,110,55,0,2,1,22,26,4,0,5,109,91,0,0,5,33,39,0,0,9,114,81,0,3,8,33,32,5,0,8,114,94,0,2,10,36,40,6,0,9,109,76,0,4,0,26,43,0,0,10,109,90,0,4,0,30,51,0,0,8,142,89,0,7,6,30,41,0,0,8,142,127,0,8,8,39,65,0,0,12,112,74,0,3,4,21,42,0,0,8,105,74,0,2,3,21,44,0,0,9,120,65,0,2,0,31,27,0,0,13,0,0,0,0,0,0,0,0,0,0
P.S. 001 ALFRED E. SMITH,40.712561,-73.997474,NEW YORK,No,0.769,328.1779,0.25,0.64,0.12,0.22,0.34,0.01,0.95,0.18,0.89,0.91,0.95,0.86,0.87,0.94,2.59,50,7,0,3,0,4,0,0,0,5,51,26,0,3,0,22,0,0,5,16,61,13,0,1,0,12,0,0,0,10,64,27,0,0,1,26,0,0,3,15,71,6,0,0,0,6,0,0,0,3,70,18,0,0,0,18,0,0,0,13,0,0,0,0,0,0,0,0,0,0,0,0,0,0,0,0,0,0,0,0,0,0,0,0,0,0,0,0,0,0,0,0,0,0,0,0,0,0,0,0,0,0,0,0,0,0,0,0,0,0,0,0,0,0,0,0,0,0,0,0
P.S. 002 MEYER LONDON,40.712943,-73.991557,NEW YORK,No,0.858,261.1478,0.36,0.85,0.04,0.09,0.13,0.01,0.98,0.06,0.93,0.86,0.94,0.76,0.83,0.89,2.75,125,8,0,0,0,8,0,0,1,0,128,62,0,0,1,60,0,0,9,0,106,13,0,0,1,11,0,0,0,0,109,52,0,0,1,50,0,0,9,0,104,11,0,0,0,11,0,0,0,10,106,29,0,0,0,28,0,0,1,26,0,0,0,0,0,0,0,0,0,0,0,0,0,0,0,0,0,0,0,0,0,0,0,0,0,0,0,0,0,0,0,0,0,0,0,0,0,0,0,0,0,0,0,0,0,0,0,0,0,0,0,0,0,0,0,0,0,0,0,0
P.S. 003 CHARRETTE SCHOOL,40.732632,-74.005947,NEW YORK,No,0.176,1033.9919,0.04,0.07,0.05,0.12,0.18,0.7,0.95,0.13,0.97,0.93,0.97,0.93,0.96,0.95,3.09,105,9,0,1,1,1,6,0,0,0,105,52,0,2,3,4,42,0,1,5,142,44,0,0,6,0,30,4,0,1,143,61,0,0,3,0,44,7,0,3,61,18,0,0,1,3,13,0,0,3,59,27,0,0,2,6,18,0,0,5,0,0,0,0,0,0,0,0,0,0,0,0,0,0,0,0,0,0,0,0,0,0,0,0,0,0,0,0,0,0,0,0,0,0,0,0,0,0,0,0,0,0,0,0,0,0,0,0,0,0,0,0,0,0,0,0,0,0,0,0
P.S. 006 LILLIE D. BLAKE,40.777703,-73.960428,NEW YORK,No,0.101,1442.7013,0.02,0.13,0.02,0.07,0.09,0.75,0.96,0.05,0.87,0.9,0.95,0.87,0.92,0.9,3.4,125,45,0,0,0,5,37,0,0,2,126,83,0,0,3,11,65,0,0,4,117,53,0,0,5,9,36,0,0,4,119,70,0,0,4,14,49,0,0,5,109,52,0,0,6,0,40,0,0,2,110,55,0,0,6,0,39,0,0,2,0,0,0,0,0,0,0,0,0,0,0,0,0,0,0,0,0,0,0,0,0,0,0,0,0,0,0,0,0,0,0,0,0,0,0,0,0,0,0,0,0,0,0,0,0,0,0,0,0,0,0,0,0,0,0,0,0,0,0,0
P.S. 011 WILLIAM T. HARRIS,40.744549,-74.000737,NEW YORK,No,0.293,984.5577,0.03,0.14,0.07,0.25,0.32,0.49,0.96,0.1,0.93,0.93,0.98,0.91,0.93,0.95,3.12,179,39,0,0,5,11,21,2,0,3,179,81,0,0,12,22,42,5,0,9,145,60,0,0,5,18,35,0,0,5,149,70,0,0,6,20,41,0,4,9,122,28,0,0,4,0,18,0,0,5,122,43,0,0,8,0,27,0,0,4,0,0,0,0,0,0,0,0,0,0,0,0,0,0,0,0,0,0,0,0,0,0,0,0,0,0,0,0,0,0,0,0,0,0,0,0,0,0,0,0,0,0,0,0,0,0,0,0,0,0,0,0,0,0,0,0,0,0,0,0
P.S. 033 CHELSEA PREP,40.748945,-74.000243,NEW YORK,No,0.43,880.1114,0.04,0.25,0.12,0.3,0.42,0.26,0.96,0.13,0.97,0.9,0.94,0.82,0.92,0.89,3.04,91,20,0,0,2,5,11,2,0,2,92,52,0,1,6,17,24,4,0,9,97,44,0,0,4,15,20,0,0,8,98,52,0,0,5,20,23,0,0,13,94,36,0,0,3,18,13,0,0,8,94,39,0,0,3,20,14,0,0,11,0,0,0,0,0,0,0,0,0,0,0,0,0,0,0,0,0,0,0,0,0,0,0,0,0,0,0,0,0,0,0,0,0,0,0,0,0,0,0,0,0,0,0,0,0,0,0,0,0,0,0,0,0,0,0,0,0,0,0,0
P.S. 040 AUGUSTUS SAINT-GAUDENS,40.735118,-73.981697,NEW YORK,No,0.153,1024.2146,0.03,0.09,0.03,0.13,0.16,0.64,0.96,0.07,0.97,0.94,0.99,0.91,0.96,0.96,3.39,93,26,0,0,4,0,15,3,0,0,95,49,0,0,4,5,35,0,0,3,88,49,0,0,5,5,36,0,0,4,90,48,0,0,4,6,34,0,0,4,93,54,0,0,4,6,38,0,0,2,94,52,0,0,6,4,35,0,0,3,0,0,0,0,0,0,0,0,0,0,0,0,0,0,0,0,0,0,0,0,0,0,0,0,0,0,0,0,0,0,0,0,0,0,0,0,0,0,0,0,0,0,0,0,0,0,0,0,0,0,0,0,0,0,0,0,0,0,0,0
P.S. 041 GREENWICH VILLAGE,40.735526,-73.999113,NEW YORK,No,0.066,1159.0989,0.02,0.09,0.02,0.1,0.11,0.69,0.97,0.02,0.95,0.96,0.98,0.92,0.95,0.98,3.44,110,25,0,0,2,2,16,0,0,0,110,57,0,0,4,11,37,0,0,0,111,65,0,0,5,7,50,3,0,0,111,66,0,0,6,8,47,5,0,0,107,45,0,0,4,5,35,0,0,3,106,50,0,0,5,6,37,0,0,1,0,0,0,0,0,0,0,0,0,0,0,0,0,0,0,0,0,0,0,0,0,0,0,0,0,0,0,0,0,0,0,0,0,0,0,0,0,0,0,0,0,0,0,0,0,0,0,0,0,0,0,0,0,0,0,0,0,0,0,0
P.S. 051 ELIAS HOWE,40.761593,-73.99559,NEW YORK,No,0.626,911.4935,0.09,0.24,0.12,0.42,0.55,0.2,0.94,0.15,0.9,0.95,0.97,0.91,0.89,0.97,2.55,45,1,0,0,0,0,0,0,0,0,45,14,0,0,5,6,0,0,0,6,48,9,0,0,5,1,3,0,0,4,50,7,0,0,3,1,3,0,0,2,45,6,0,1,1,2,0,0,0,2,45,11,0,1,3,4,0,0,0,3,0,0,0,0,0,0,0,0,0,0,0,0,0,0,0,0,0,0,0,0,0,0,0,0,0,0,0,0,0,0,0,0,0,0,0,0,0,0,0,0,0,0,0,0,0,0,0,0,0,0,0,0,0,0,0,0,0,0,0,0
P.S. 059 BEEKMAN HILL INTERNATIONAL,40.759213,-73.966183,NEW YORK,No,0.075,1162.3564,0.04,0.15,0.02,0.13,0.15,0.59,0.96,0.06,0.87,0.87,0.95,0.76,0.94,0.89,3.24,95,21,0,0,3,1,16,0,0,0,97,48,0,0,5,3,35,0,0,3,92,35,0,0,4,5,19,0,0,3,94,53,0,0,9,10,26,0,0,7,91,41,0,0,4,4,29,4,0,4,91,46,0,0,6,4,33,3,0,5,0,0,0,0,0,0,0,0,0,0,0,0,0,0,0,0,0,0,0,0,0,0,0,0,0,0,0,0,0,0,0,0,0,0,0,0,0,0,0,0,0,0,0,0,0,0,0,0,0,0,0,0,0,0,0,0,0,0,0,0
P.S. 77 LOWER LAB SCHOOL,40.785014,-73.950031,NEW YORK,No,0.069,1059.4771,0,0.27,0,0.05,0.06,0.59,0.97,0.01,0.93,0.96,0.98,0.93,0.95,0.99,3.73,62,35,0,0,0,13,16,0,0,0,62,51,0,0,0,20,22,0,0,0,60,50,0,0,0,0,34,0,0,0,60,49,0,0,0,9,35,0,0,0,52,40,0,0,5,5,27,3,0,0,52,42,0,0,5,0,25,0,0,0,0,0,0,0,0,0,0,0,0,0,0,0,0,0,0,0,0,0,0,0,0,0,0,0,0,0,0,0,0,0,0,0,0,0,0,0,0,0,0,0,0,0,0,0,0,0,0,0,0,0,0,0,0,0,0,0,0,0,0,0
P.S. 89,40.716867,-74.013623,NEW YORK,No,0.068,1813.8206,0.04,0.16,0.02,0.14,0.16,0.62,0.96,0.06,0.95,0.94,0.98,0.9,0.93,0.97,3.23,48,10,0,0,0,0,8,0,0,0,51,28,0,0,5,0,17,0,0,0,59,31,0,0,4,0,19,0,0,0,59,35,0,0,3,0,26,0,0,0,46,20,0,0,0,7,8,0,0,0,47,23,0,0,1,9,9,0,0,0,0,0,0,0,0,0,0,0,0,0,0,0,0,0,0,0,0,0,0,0,0,0,0,0,0,0,0,0,0,0,0,0,0,0,0,0,0,0,0,0,0,0,0,0,0,0,0,0,0,0,0,0,0,0,0,0,0,0,0,0
P.S. 111 ADOLPH S. OCHS,40.765834,-73.989602,NEW YORK,No,0.645,709.7041,0.12,0.18,0.16,0.5,0.66,0.13,0.92,0.26,0.89,0.79,0.81,0.74,0.88,0.86,2.39,43,6,0,0,0,5,1,0,1,1,46,13,0,0,2,7,4,0,2,7,45,2,0,0,1,0,0,0,0,1,45,2,0,0,0,0,0,0,0,0,47,5,0,0,0,1,3,0,0,2,49,3,0,0,0,0,3,0,0,1,0,0,0,0,0,0,0,0,0,0,0,0,0,0,0,0,0,0,0,0,0,0,0,0,0,0,0,0,0,0,0,0,0,0,0,0,0,0,0,0,47,6,0,1,3,1,0,0,0,2,47,6,0,1,3,2,0,0,1,1
P.S. 116 MARY LINDLEY MURRAY,40.744425,-73.977634,NEW YORK,No,0.307,961.7416,0.11,0.2,0.09,0.22,0.3,0.44,0.95,0.14,0.92,0.92,0.95,0.83,0.9,0.92,3.07,87,16,0,0,2,5,6,0,0,2,92,21,0,0,1,10,8,0,2,5,109,28,0,0,2,8,15,0,0,2,115,36,0,0,2,15,18,0,4,3,118,33,0,0,3,6,24,0,0,5,121,30,0,0,2,6,21,0,0,6,0,0,0,0,0,0,0,0,0,0,0,0,0,0,0,0,0,0,0,0,0,0,0,0,0,0,0,0,0,0,0,0,0,0,0,0,0,0,0,0,0,0,0,0,0,0,0,0,0,0,0,0,0,0,0,0,0,0,0,0
P.S. 124 YUNG WING,40.714426,-73.995526,NEW YORK,No,0.578,424.9371,0.29,0.95,0,0.03,0.03,0.01,0.98,0.02,0.83,0.77,0.94,0.65,0.8,0.85,3.1,125,26,0,0,0,24,0,0,0,12,126,64,0,0,0,60,0,0,4,30,136,50,0,0,0,0,0,0,0,24,137,80,0,0,0,0,0,0,6,37,130,19,0,0,0,18,0,0,0,7,131,49,0,0,0,48,0,0,1,19,0,0,0,0,0,0,0,0,0,0,0,0,0,0,0,0,0,0,0,0,0,0,0,0,0,0,0,0,0,0,0,0,0,0,0,0,0,0,0,0,0,0,0,0,0,0,0,0,0,0,0,0,0,0,0,0,0,0,0,0
P.S. 126 JACOB AUGUST RIIS,40.710448,-73.997001,NEW YORK,No,0.728,389.1961,0.17,0.59,0.11,0.21,0.32,0.08,0.96,0.1,0.91,0.93,0.91,0.89,0.82,0.95,2.93,70,6,0,0,0,6,0,0,0,5,73,18,0,0,0,17,0,0,1,15,53,7,0,0,0,6,0,0,0,0,54,19,0,0,1,17,0,0,1,0,50,1,0,0,0,1,0,0,0,0,52,10,0,0,0,10,0,0,1,0,116,31,0,2,2,18,6,3,0,17,116,67,0,0,6,44,11,0,2,40,103,32,0,0,4,17,9,0,0,20,104,44,0,0,2,30,11,0,0,29,103,42,0,0,6,27,8,0,0,18,0,0,0,0,0,0,0,0,0,0
P.S. 130 HERNANDO DE SOTO,40.718819,-73.998263,NEW YORK,No,0.616,598.5121,0.13,0.88,0.01,0.05,0.06,0.03,0.99,0.02,0.98,0.97,0.97,0.96,0.9,0.99,3.09,167,30,0,0,1,27,0,0,0,10,167,96,0,0,2,87,0,0,0,40,173,65,0,0,3,56,0,0,0,25,175,91,0,0,4,82,0,0,1,39,129,40,0,0,0,39,0,0,0,19,130,74,0,0,1,70,0,0,3,34,0,0,0,0,0,0,0,0,0,0,0,0,0,0,0,0,0,0,0,0,0,0,0,0,0,0,0,0,0,0,0,0,0,0,0,0,0,0,0,0,0,0,0,0,0,0,0,0,0,0,0,0,0,0,0,0,0,0,0,0
P.S. 150,40.718083,-74.010942,NEW YORK,No,0.196,1327.9544,0.02,0.16,0.05,0.14,0.19,0.55,0.95,0.05,0.95,0.9,0.96,0.9,0.95,0.97,3.37,25,8,0,0,0,0,4,0,0,0,25,14,0,0,0,0,10,0,0,0,26,15,0,0,0,0,12,0,0,2,26,17,0,0,0,0,11,0,0,3,24,10,0,0,2,0,6,0,0,0,25,12,0,0,1,0,6,0,0,0,0,0,0,0,0,0,0,0,0,0,0,0,0,0,0,0,0,0,0,0,0,0,0,0,0,0,0,0,0,0,0,0,0,0,0,0,0,0,0,0,0,0,0,0,0,0,0,0,0,0,0,0,0,0,0,0,0,0,0,0
YORKVILLE COMMUNITY SCHOOL,40.777924,-73.947316,NEW YORK,No,0.367,816.9071,0.07,0.07,0.14,0.27,0.41,0.47,0.94,0.16,0.96,0.96,0.93,0.9,0.92,0.95,2.83,83,18,0,0,3,3,9,3,0,2,86,40,0,0,5,4,27,4,2,4,107,41,0,0,3,0,32,0,0,1,109,44,0,1,4,0,32,0,1,1,77,14,0,0,1,0,10,0,0,0,80,22,0,1,2,2,13,0,0,0,0,0,0,0,0,0,0,0,0,0,0,0,0,0,0,0,0,0,0,0,0,0,0,0,0,0,0,0,0,0,0,0,0,0,0,0,0,0,0,0,0,0,0,0,0,0,0,0,0,0,0,0,0,0,0,0,0,0,0,0
P.S. 158 BAYARD TAYLOR,40.770203,-73.95073,NEW YORK,No,0.11,941.9468,0.05,0.11,0.04,0.1,0.14,0.71,0.96,0.08,0.96,0.87,0.96,0.8,0.89,0.89,3.49,112,32,0,0,3,4,24,0,0,0,116,71,0,0,5,5,56,0,3,3,82,53,0,0,1,3,45,0,0,4,84,45,0,0,1,4,38,0,2,3,107,41,0,0,3,12,23,0,0,5,106,49,0,0,5,7,32,0,0,5,0,0,0,0,0,0,0,0,0,0,0,0,0,0,0,0,0,0,0,0,0,0,0,0,0,0,0,0,0,0,0,0,0,0,0,0,0,0,0,0,0,0,0,0,0,0,0,0,0,0,0,0,0,0,0,0,0,0,0,0
P.S. 183 ROBERT L. STEVENSON,40.763762,-73.957759,NEW YORK,No,0.074,1047.0089,0.06,0.17,0.04,0.1,0.14,0.66,0.96,0.07,0.85,0.94,0.94,0.88,0.93,0.95,3.26,88,23,0,0,0,8,11,0,0,0,91,50,0,0,0,16,29,0,4,2,74,38,0,0,1,11,25,0,0,1,77,47,0,0,2,11,32,0,0,4,87,21,0,0,3,4,14,0,0,1,90,32,0,0,4,4,23,0,0,1,0,0,0,0,0,0,0,0,0,0,0,0,0,0,0,0,0,0,0,0,0,0,0,0,0,0,0,0,0,0,0,0,0,0,0,0,0,0,0,0,0,0,0,0,0,0,0,0,0,0,0,0,0,0,0,0,0,0,0,0
P.S. 198 ISADOR E. IDA STRAUS,40.785014,-73.950031,NEW YORK,No,0.365,819.3276,0.07,0.16,0.1,0.27,0.37,0.45,0.94,0.19,0.89,0.9,0.86,0.78,0.95,0.93,2.73,70,17,0,0,1,6,10,0,0,3,71,31,0,0,2,8,19,0,0,6,65,15,0,0,3,3,9,0,0,0,65,31,0,0,5,8,15,0,0,6,94,24,0,3,5,0,13,0,0,6,94,34,0,4,6,0,18,0,0,6,0,0,0,0,0,0,0,0,0,0,0,0,0,0,0,0,0,0,0,0,0,0,0,0,0,0,0,0,0,0,0,0,0,0,0,0,0,0,0,0,0,0,0,0,0,0,0,0,0,0,0,0,0,0,0,0,0,0,0,0
P.S. 212 MIDTOWN WEST,40.761329,-73.988669,NEW YORK,No,0.2,852.9572,0.02,0.1,0.06,0.23,0.29,0.48,0.96,0.05,0.93,0.98,0.97,0.97,0.97,0.99,3.14,55,5,0,0,0,0,2,0,0,1,55,18,0,0,3,0,7,3,0,2,54,22,0,0,4,4,9,4,0,6,54,22,0,0,4,3,11,3,0,3,49,22,0,0,5,0,11,0,0,1,49,23,0,1,4,0,12,6,0,2,0,0,0,0,0,0,0,0,0,0,0,0,0,0,0,0,0,0,0,0,0,0,0,0,0,0,0,0,0,0,0,0,0,0,0,0,0,0,0,0,0,0,0,0,0,0,0,0,0,0,0,0,0,0,0,0,0,0,0,0
ELLA BAKER SCHOOL,40.765368,-73.959696,NEW YORK,No,0.429,580.9658,0.03,0.04,0.19,0.37,0.56,0.35,0.92,0.26,0.91,0.91,0.93,0.82,0.95,0.9,2.71,18,0,0,0,0,0,0,0,0,0,17,0,0,0,0,0,0,0,0,0,14,1,0,0,0,0,0,0,0,0,14,1,0,0,0,0,0,0,0,0,20,5,0,1,1,0,0,0,0,0,19,1,0,0,0,0,0,0,0,0,7,0,0,0,0,0,0,0,0,0,7,0,0,0,0,0,0,0,0,0,12,0,0,0,0,0,0,0,0,0,11,0,0,0,0,0,0,0,0,0,13,3,0,0,1,0,0,0,0,1,13,5,0,0,2,0,0,0,0,2
P.S. 234 INDEPENDENCE SCHOOL,40.716096,-74.011765,NEW YORK,No,0.065,1767.934,0.01,0.11,0.01,0.08,0.1,0.7,0.96,0.06,0.92,0.9,0.97,0.76,0.94,0.87,3.25,113,7,0,0,0,0,6,1,0,0,112,33,0,0,0,4,24,5,0,0,96,49,0,0,5,5,33,0,0,0,97,45,0,0,4,6,31,0,0,0,91,45,0,0,0,5,37,0,0,1,91,47,0,0,0,7,37,0,0,0,0,0,0,0,0,0,0,0,0,0,0,0,0,0,0,0,0,0,0,0,0,0,0,0,0,0,0,0,0,0,0,0,0,0,0,0,0,0,0,0,0,0,0,0,0,0,0,0,0,0,0,0,0,0,0,0,0,0,0,0
"EAST SIDE ELEMENTARY SCHOOL, PS 267",40.763854,-73.963813,NEW YORK,No,0.049,1152.6292,0.04,0.11,0.02,0.07,0.09,0.78,0.96,0.07,0.94,0.96,0.95,0.9,0.91,0.91,3.13,63,16,0,0,0,2,14,0,0,1,63,27,0,0,0,3,23,0,0,2,46,26,0,0,0,0,21,0,0,0,46,23,0,0,0,0,18,0,0,0,19,6,0,0,0,0,4,0,0,0,20,6,0,0,0,0,3,0,0,0,0,0,0,0,0,0,0,0,0,0,0,0,0,0,0,0,0,0,0,0,0,0,0,0,0,0,0,0,0,0,0,0,0,0,0,0,0,0,0,0,0,0,0,0,0,0,0,0,0,0,0,0,0,0,0,0,0,0,0,0
BATTERY PARK CITY SCHOOL,40.706563,-74.017528,NEW YORK,No,0.114,1400.8512,0.02,0.21,0.04,0.11,0.15,0.56,0.96,0.08,0.92,0.94,0.88,0.92,0.9,0.93,3.16,105,19,0,0,3,6,9,0,0,1,107,36,0,0,6,12,15,0,2,1,101,40,0,1,4,13,16,6,0,0,100,53,0,2,3,20,20,8,0,0,109,33,0,1,2,7,18,5,0,0,111,32,0,2,4,8,16,2,0,3,92,31,0,1,2,9,14,5,0,2,92,49,0,1,3,12,27,6,0,2,89,26,0,0,1,6,19,0,0,1,89,22,0,0,0,8,12,0,0,1,61,28,0,0,0,4,20,0,0,3,34,2,0,0,0,0,1,0,0,1
P.S. 290 MANHATTAN NEW SCHOOL,40.775137,-73.952812,NEW YORK,No,0.064,1078.7864,0.03,0.11,0.01,0.09,0.1,0.73,0.96,0.06,0.92,0.96,0.97,0.92,0.93,0.97,3.37,81,28,0,0,0,0,25,1,0,1,82,41,0,0,2,0,31,5,0,1,91,39,0,0,0,3,34,0,0,3,92,45,0,0,0,7,35,0,0,2,105,34,0,0,0,4,28,0,0,0,109,61,0,0,1,10,47,0,0,2,0,0,0,0,0,0,0,0,0,0,0,0,0,0,0,0,0,0,0,0,0,0,0,0,0,0,0,0,0,0,0,0,0,0,0,0,0,0,0,0,0,0,0,0,0,0,0,0,0,0,0,0,0,0,0,0,0,0,0,0
THE 47 AMERICAN SIGN LANGUAGE & ENGLISH LOWER SCHOOL,40.738621,-73.981534,NEW YORK,No,0.812,512.8722,0.06,0.04,0.22,0.46,0.68,0.23,0.92,0.29,0.82,0.68,0.91,0.53,0.82,0.82,2.32,11,0,0,0,0,0,0,0,0,0,11,1,0,0,0,0,0,0,0,0,0,0,0,0,0,0,0,0,0,0,0,0,0,0,0,0,0,0,0,0,10,0,0,0,0,0,0,0,0,0,10,0,0,0,0,0,0,0,0,0,0,0,0,0,0,0,0,0,0,0,0,0,0,0,0,0,0,0,0,0,0,0,0,0,0,0,0,0,0,0,0,0,0,0,0,0,0,0,0,0,6,0,0,0,0,0,0,0,0,0,6,0,0,0,0,0,0,0,0,0
SPRUCE STREET SCHOOL,40.711057,-74.005361,NEW YORK,No,0.059,1439.2653,0.02,0.14,0.03,0.12,0.15,0.58,0.96,0.06,0.97,0.93,0.97,0.93,0.94,0.95,3.29,44,11,0,0,0,2,6,2,0,0,44,25,0,0,0,6,13,4,0,0,62,20,0,0,1,4,13,0,0,0,61,24,0,0,2,6,14,0,0,1,40,10,0,0,0,1,7,2,0,0,39,22,0,0,2,0,12,0,0,0,55,19,0,0,4,0,10,0,0,4,54,26,0,0,5,0,13,0,0,7,0,0,0,0,0,0,0,0,0,0,0,0,0,0,0,0,0,0,0,0,0,0,0,0,0,0,0,0,0,0,0,0,0,0,0,0,0,0,0,0
"BALLET TECH, NYC PUBLIC SCHOOL FOR DANCE",40.73854,-73.989485,NEW YORK,No,0.468,560.9512,0,0.36,0.25,0.16,0.41,0.19,0.96,0.07,0.98,0.98,0.92,0.94,0.84,0.95,3.21,0,0,0,0,0,0,0,0,0,0,0,0,0,0,0,0,0,0,0,0,35,11,0,0,1,6,0,0,0,4,35,14,0,1,1,8,0,0,0,5,40,15,0,1,0,6,6,0,0,7,41,20,0,1,0,8,8,0,0,9,24,13,0,0,0,8,0,0,0,9,24,15,0,0,0,9,0,0,0,7,20,5,0,0,0,3,0,0,0,1,20,5,0,0,0,3,0,0,0,1,23,12,0,0,0,8,0,0,0,4,0,0,0,0,0,0,0,0,0,0
P.S. 009 SARAH ANDERSON,40.785101,-73.973867,NEW YORK,No,0.221,953.1263,0.03,0.09,0.05,0.21,0.26,0.59,0.96,0.06,1,0.95,0.99,0.91,0.9,0.96,3.38,97,27,0,0,1,7,17,0,0,2,97,58,0,0,9,9,35,0,0,10,74,40,0,0,3,0,30,0,0,3,76,51,0,0,3,0,39,0,0,4,102,36,0,0,4,0,24,0,0,0,102,55,0,0,10,0,36,0,0,4,0,0,0,0,0,0,0,0,0,0,0,0,0,0,0,0,0,0,0,0,0,0,0,0,0,0,0,0,0,0,0,0,0,0,0,0,0,0,0,0,0,0,0,0,0,0,0,0,0,0,0,0,0,0,0,0,0,0,0,0
P.S. 075 EMILY DICKINSON,40.79511,-73.973988,NEW YORK,No,0.599,566.1457,0.13,0.02,0.23,0.56,0.8,0.16,0.94,0.22,0.93,0.88,0.92,0.8,0.92,0.92,2.63,69,4,0,0,3,0,0,0,0,1,70,9,0,0,6,0,0,0,0,5,66,14,0,3,5,0,5,0,0,6,68,22,0,3,9,0,9,0,1,9,68,5,0,1,1,0,0,0,0,2,68,12,0,0,9,0,0,0,0,7,0,0,0,0,0,0,0,0,0,0,0,0,0,0,0,0,0,0,0,0,0,0,0,0,0,0,0,0,0,0,0,0,0,0,0,0,0,0,0,0,0,0,0,0,0,0,0,0,0,0,0,0,0,0,0,0,0,0,0,0
P.S. 076 A. PHILIP RANDOLPH,40.806541,-73.951368,NEW YORK,No,0.85,390.5113,0.09,0.01,0.8,0.16,0.96,0.03,0.9,0.42,0.91,0.95,0.93,0.89,0.89,0.96,2.39,47,1,0,1,0,0,0,0,0,0,47,1,0,1,0,0,0,0,0,0,40,2,0,1,0,0,0,0,0,0,43,2,0,1,0,0,0,0,0,0,39,2,0,1,0,0,0,0,0,1,39,2,0,2,0,0,0,0,0,1,44,1,0,1,0,0,0,0,0,0,43,1,0,1,0,0,0,0,0,0,43,2,0,2,0,0,0,0,0,2,44,0,0,0,0,0,0,0,0,0,49,3,0,2,0,0,0,0,0,0,51,1,0,1,0,0,0,0,0,0
P.S. 084 LILLIAN WEBER,40.789382,-73.9681,NEW YORK,No,0.5,646.3318,0.1,0.03,0.13,0.42,0.55,0.38,0.95,0.14,0.92,0.94,0.97,0.81,0.89,0.93,2.76,68,10,0,0,3,0,5,0,0,1,71,30,0,0,10,0,17,0,3,9,67,13,0,0,2,0,9,0,0,4,67,13,0,0,4,0,7,0,0,5,66,7,0,0,2,0,3,0,0,1,68,13,0,0,4,0,8,0,0,2,0,0,0,0,0,0,0,0,0,0,0,0,0,0,0,0,0,0,0,0,0,0,0,0,0,0,0,0,0,0,0,0,0,0,0,0,0,0,0,0,0,0,0,0,0,0,0,0,0,0,0,0,0,0,0,0,0,0,0,0
P.S. 087 WILLIAM SHERMAN,40.781788,-73.978008,NEW YORK,No,0.099,1111.1515,0.04,0.07,0.05,0.15,0.2,0.64,0.96,0.06,0.92,0.8,0.97,0.69,0.93,0.84,3.38,124,28,0,0,0,0,20,5,0,0,127,42,0,1,4,0,30,5,0,0,118,71,0,4,9,4,49,5,0,4,118,79,0,3,7,6,58,5,0,4,107,32,0,0,5,2,25,0,0,2,106,48,0,0,5,6,34,0,0,2,0,0,0,0,0,0,0,0,0,0,0,0,0,0,0,0,0,0,0,0,0,0,0,0,0,0,0,0,0,0,0,0,0,0,0,0,0,0,0,0,0,0,0,0,0,0,0,0,0,0,0,0,0,0,0,0,0,0,0,0
"P.S. 145, THE BLOOMINGDALE SCHOOL",40.79909,-73.965359,NEW YORK,No,0.843,447.2739,0.13,0.02,0.25,0.63,0.88,0.07,0.91,0.35,0.91,0.85,0.89,0.76,0.82,0.84,2.12,50,1,0,0,1,0,0,0,0,1,50,2,0,0,1,0,0,0,0,1,40,1,0,0,1,0,0,0,0,0,41,0,0,0,0,0,0,0,0,0,46,0,0,0,0,0,0,0,0,0,46,0,0,0,0,0,0,0,0,0,0,0,0,0,0,0,0,0,0,0,0,0,0,0,0,0,0,0,0,0,0,0,0,0,0,0,0,0,0,0,0,0,0,0,0,0,0,0,0,0,0,0,0,0,0,0,0,0,0,0,0,0,0,0,0,0,0,0,0,0
P.S. 149 SOJOURNER TRUTH,40.802666,-73.948256,NEW YORK,Yes,0.883,371.1083,0.09,0.03,0.64,0.27,0.92,0.02,0.91,0.37,0.83,0.7,0.77,0.6,0.81,0.82,2.1,24,0,0,0,0,0,0,0,0,0,25,1,0,0,0,0,0,0,0,0,25,0,0,0,0,0,0,0,0,0,26,0,0,0,0,0,0,0,0,0,26,1,0,1,0,0,0,0,0,0,26,2,0,1,0,0,0,0,0,0,19,0,0,0,0,0,0,0,0,0,20,0,0,0,0,0,0,0,0,0,24,0,0,0,0,0,0,0,0,0,23,0,0,0,0,0,0,0,0,0,27,0,0,0,0,0,0,0,0,0,27,0,0,0,0,0,0,0,0,0
P.S. 163 ALFRED E. SMITH,40.794945,-73.968535,NEW YORK,No,0.503,642.7258,0.07,0.06,0.16,0.46,0.62,0.27,0.95,0.13,0.89,0.82,0.91,0.59,0.91,0.78,2.99,84,7,0,0,2,0,3,0,0,3,85,22,0,2,5,0,10,0,0,8,91,21,0,2,6,4,8,0,0,4,91,33,0,1,11,7,10,0,0,7,100,33,0,3,7,0,15,0,0,7,101,46,0,3,11,0,20,0,0,10,0,0,0,0,0,0,0,0,0,0,0,0,0,0,0,0,0,0,0,0,0,0,0,0,0,0,0,0,0,0,0,0,0,0,0,0,0,0,0,0,0,0,0,0,0,0,0,0,0,0,0,0,0,0,0,0,0,0,0,0
P.S. 165 ROBERT E. SIMON,40.802678,-73.96595,NEW YORK,No,0.739,487.8374,0.17,0.03,0.14,0.68,0.82,0.13,0.91,0.29,0.87,0.82,0.87,0.73,0.86,0.85,2.37,93,11,0,1,3,0,5,0,0,4,95,23,0,3,5,0,11,0,1,12,94,13,0,1,7,0,2,0,0,6,98,27,0,3,18,0,1,0,2,17,70,9,0,1,7,0,0,0,0,5,72,4,0,1,1,0,0,0,0,2,50,0,0,0,0,0,0,0,0,0,51,2,0,1,0,0,0,0,1,1,49,3,0,0,3,0,0,0,0,3,50,0,0,0,0,0,0,0,0,0,78,1,0,0,1,0,0,0,0,1,78,0,0,0,0,0,0,0,0,0
P.S. 166 THE RICHARD RODGERS SCHOOL OF THE ARTS AND TECHNOLOGY,40.788883,-73.972455,NEW YORK,No,0.217,985.9522,0.02,0.11,0.06,0.17,0.23,0.59,0.96,0.08,0.84,0.86,0.95,0.68,0.9,0.84,3.3,101,43,0,1,0,9,29,0,0,0,101,68,0,3,6,10,43,0,0,4,73,36,0,3,1,5,24,0,0,2,73,42,0,2,2,7,27,0,0,4,79,30,0,0,1,5,23,0,0,4,79,40,0,0,3,6,27,0,0,5,0,0,0,0,0,0,0,0,0,0,0,0,0,0,0,0,0,0,0,0,0,0,0,0,0,0,0,0,0,0,0,0,0,0,0,0,0,0,0,0,0,0,0,0,0,0,0,0,0,0,0,0,0,0,0,0,0,0,0,0
P.S. 180 HUGO NEWMAN,40.807609,-73.955839,NEW YORK,No,0.69,514.686,0.05,0.01,0.57,0.3,0.87,0.08,0.94,0.19,0.86,0.86,0.86,0.85,0.9,0.9,2.48,57,2,0,1,0,0,0,0,0,0,57,9,0,4,1,0,0,0,0,4,52,4,0,2,0,0,0,0,0,2,54,3,0,0,0,0,0,0,0,0,60,3,0,3,0,0,0,0,0,3,59,0,0,0,0,0,0,0,0,0,56,10,0,7,0,0,0,0,0,9,56,6,0,5,0,0,0,0,0,4,52,3,0,3,0,0,0,0,0,1,53,6,0,4,0,0,0,0,0,4,53,3,0,3,0,0,0,0,0,1,54,1,0,0,0,0,0,0,0,1
P.S. 191 AMSTERDAM,40.771743,-73.987572,NEW YORK,No,0.758,639.4738,0.08,0.07,0.36,0.45,0.81,0.11,0.91,0.33,0.82,0.79,0.82,0.7,0.88,0.88,2.23,23,0,0,0,0,0,0,0,0,0,22,0,0,0,0,0,0,0,0,0,25,1,0,0,0,0,0,0,0,0,25,1,0,0,0,0,0,0,0,0,37,0,0,0,0,0,0,0,0,0,37,0,0,0,0,0,0,0,0,0,24,1,0,0,1,0,0,0,0,0,23,0,0,0,0,0,0,0,0,0,29,1,0,0,0,0,0,0,0,0,25,2,0,0,0,0,0,0,0,0,43,3,0,1,1,0,0,0,0,0,42,2,0,0,0,0,0,0,0,0
P.S. 199 JESSIE ISADOR STRAUS,40.777766,-73.984736,NEW YORK,No,0.078,1158.9733,0.03,0.14,0.02,0.13,0.15,0.63,0.96,0.05,0.94,0.93,0.99,0.9,0.94,0.95,3.36,142,40,0,0,3,8,26,0,0,1,144,83,0,0,4,14,59,0,0,1,132,73,0,1,9,11,47,5,0,1,134,105,0,3,12,18,65,7,0,3,125,39,0,0,4,7,25,0,0,0,125,59,0,0,4,11,38,0,0,2,0,0,0,0,0,0,0,0,0,0,0,0,0,0,0,0,0,0,0,0,0,0,0,0,0,0,0,0,0,0,0,0,0,0,0,0,0,0,0,0,0,0,0,0,0,0,0,0,0,0,0,0,0,0,0,0,0,0,0,0
P.S. 208 ALAIN L. LOCKE,40.798341,-73.950453,NEW YORK,No,0.875,303.2185,0.11,0.03,0.61,0.34,0.95,0.01,0.93,0.26,0.88,0.9,0.82,0.81,0.85,0.91,2.25,46,0,0,0,0,0,0,0,0,0,47,3,0,1,0,0,0,0,0,0,38,0,0,0,0,0,0,0,0,0,39,2,0,1,0,0,0,0,0,0,38,1,0,0,0,0,0,0,0,0,39,2,0,0,0,0,0,0,0,0,0,0,0,0,0,0,0,0,0,0,0,0,0,0,0,0,0,0,0,0,0,0,0,0,0,0,0,0,0,0,0,0,0,0,0,0,0,0,0,0,0,0,0,0,0,0,0,0,0,0,0,0,0,0,0,0,0,0,0,0
STEM INSTITUTE OF MANHATTAN,40.801651,-73.955295,NEW YORK,No,0.849,441.2671,0.13,0.03,0.53,0.38,0.91,0.04,0.91,0.33,0,0.94,0.91,0.95,0.88,0.94,1.97,11,1,0,0,0,0,0,0,0,0,14,0,0,0,0,0,0,0,0,0,19,0,0,0,0,0,0,0,0,0,20,1,0,0,0,0,0,0,0,0,14,0,0,0,0,0,0,0,0,0,15,0,0,0,0,0,0,0,0,0,0,0,0,0,0,0,0,0,0,0,0,0,0,0,0,0,0,0,0,0,0,0,0,0,0,0,0,0,0,0,0,0,0,0,0,0,0,0,0,0,0,0,0,0,0,0,0,0,0,0,0,0,0,0,0,0,0,0,0,0
P.S. 242 - THE YOUNG DIPLOMATS MAGNET ACADEMY,40.806174,-73.948335,NEW YORK,No,0.886,386.552,0.07,0.01,0.65,0.29,0.94,0.02,0.9,0.37,0.96,0.76,0.82,0.62,0.83,0.75,2.18,27,1,0,1,0,0,0,0,0,1,27,3,0,2,0,0,0,0,0,1,25,0,0,0,0,0,0,0,0,0,25,1,0,1,0,0,0,0,0,0,27,0,0,0,0,0,0,0,0,0,28,0,0,0,0,0,0,0,0,0,0,0,0,0,0,0,0,0,0,0,0,0,0,0,0,0,0,0,0,0,0,0,0,0,0,0,0,0,0,0,0,0,0,0,0,0,0,0,0,0,0,0,0,0,0,0,0,0,0,0,0,0,0,0,0,0,0,0,0,0
P.S. 333 MANHATTAN SCHOOL FOR CHILDREN,40.791685,-73.97077,NEW YORK,No,0.233,721.1272,0.01,0.07,0.11,0.17,0.27,0.62,0.95,0.09,0.93,0.87,0.88,0.79,0.94,0.91,3.09,85,15,0,1,0,1,13,0,0,0,84,27,0,1,3,2,21,0,0,0,82,35,0,4,2,0,25,0,0,3,82,29,0,3,2,0,20,0,0,2,70,24,0,0,0,2,21,0,0,0,68,25,0,0,2,3,19,0,0,0,51,9,0,0,2,0,5,0,0,2,51,9,0,0,1,0,6,0,0,3,46,15,0,0,4,0,10,0,0,3,46,6,0,0,1,0,5,0,0,0,44,10,0,2,0,0,5,0,0,2,20,1,0,0,0,0,1,0,0,0
THE ANDERSON SCHOOL,40.781081,-73.978085,NEW YORK,No,0.134,890.2673,0,0.28,0.04,0.09,0.13,0.53,0.98,0.01,0.9,0.9,0.92,0.87,0.93,0.92,3.93,59,29,0,0,2,12,12,0,0,4,59,55,0,0,0,0,25,0,0,7,56,50,0,0,5,13,27,0,0,0,56,51,0,0,4,13,29,0,0,0,50,29,0,0,0,6,17,0,0,0,50,34,0,0,0,5,23,0,0,0,89,59,0,0,3,20,33,0,0,5,89,79,0,0,3,24,48,0,0,0,72,50,0,0,0,13,30,0,0,4,72,59,0,0,0,0,39,0,0,3,61,50,0,0,4,21,19,0,0,9,0,0,0,0,0,0,0,0,0,0
P.S. 452,40.781081,-73.978085,NEW YORK,No,0.162,1029.6337,0.02,0.1,0.08,0.13,0.21,0.64,0.96,0.09,0.97,0.98,0.99,0.96,0.94,0.97,3.28,45,17,0,0,0,4,10,3,0,0,45,18,0,0,0,4,10,3,0,0,48,17,0,1,0,3,12,0,0,0,48,27,0,1,0,2,23,0,0,0,45,11,0,0,0,5,6,0,0,1,45,25,0,0,2,0,17,0,0,1,0,0,0,0,0,0,0,0,0,0,0,0,0,0,0,0,0,0,0,0,0,0,0,0,0,0,0,0,0,0,0,0,0,0,0,0,0,0,0,0,0,0,0,0,0,0,0,0,0,0,0,0,0,0,0,0,0,0,0,0
SPECIAL MUSIC SCHOOL,40.775221,-73.982997,NEW YORK,No,0.253,767.9147,0.01,0.16,0.13,0.14,0.28,0.43,0.96,0.07,0.96,0.97,0.91,0.95,0.91,0.95,3.67,16,5,0,0,0,0,0,0,0,0,16,8,0,0,0,0,3,0,0,0,12,9,0,0,0,0,5,0,0,0,12,9,0,0,0,0,5,0,0,0,13,9,0,0,0,0,0,0,0,0,0,0,0,0,0,0,0,0,0,0,15,9,0,0,0,0,6,0,0,0,14,9,0,0,0,0,7,0,0,0,14,10,0,0,0,0,6,0,0,0,14,7,0,0,0,0,3,0,0,0,14,12,0,0,0,0,5,0,0,0,0,0,0,0,0,0,0,0,0,0
P.S. 007 SAMUEL STERN,40.800631,-73.939323,NEW YORK,No,0.899,245.5359,0.12,0.03,0.3,0.62,0.92,0.04,0.9,0.34,0.9,0.86,0.83,0.82,0.84,0.87,2.43,27,0,0,0,0,0,0,0,0,0,27,2,0,0,2,0,0,0,0,0,34,2,0,0,1,0,0,0,0,0,34,5,0,0,3,0,0,0,0,0,25,2,0,0,1,0,0,0,0,1,25,0,0,0,0,0,0,0,0,0,44,2,0,0,2,0,0,0,0,1,43,2,0,0,2,0,0,0,0,1,37,0,0,0,0,0,0,0,0,0,38,0,0,0,0,0,0,0,0,0,35,5,0,0,4,0,0,0,0,5,32,1,0,0,0,0,0,0,0,1
TAG YOUNG SCHOLARS,40.79259,-73.942119,NEW YORK,No,0.435,484.3158,0,0.34,0.25,0.19,0.44,0.15,0.97,0.05,0.92,0.92,0.91,0.86,0.87,0.9,3.64,57,37,0,10,3,17,0,0,0,16,58,47,0,12,4,22,0,0,0,21,61,41,0,0,7,15,0,0,0,19,61,57,0,0,15,18,0,0,0,0,94,54,0,5,9,26,8,0,0,30,94,46,0,4,4,25,8,0,0,22,56,35,0,4,8,17,0,0,0,22,56,50,0,8,14,20,0,0,0,31,56,38,0,7,5,18,0,0,0,21,57,42,0,8,5,22,0,0,0,21,52,31,0,13,0,13,0,0,0,19,0,0,0,0,0,0,0,0,0,0
RIVER EAST ELEMENTARY,40.796906,-73.929978,NEW YORK,No,0.779,283.1081,0.04,0,0.45,0.51,0.96,0.02,0.92,0.28,0.9,0.88,0.92,0.74,0.86,0.93,2.5,16,0,0,0,0,0,0,0,0,0,16,1,0,1,0,0,0,0,0,0,36,2,0,2,0,0,0,0,0,0,36,0,0,0,0,0,0,0,0,0,31,3,0,1,2,0,0,0,0,3,31,0,0,0,0,0,0,0,0,0,0,0,0,0,0,0,0,0,0,0,0,0,0,0,0,0,0,0,0,0,0,0,0,0,0,0,0,0,0,0,0,0,0,0,0,0,0,0,0,0,0,0,0,0,0,0,0,0,0,0,0,0,0,0,0,0,0,0,0,0
P.S. 38 ROBERTO CLEMENTE,40.788684,-73.944766,NEW YORK,No,0.915,345.6795,0.1,0.04,0.31,0.61,0.91,0.02,0.88,0.5,0.87,0.77,0.76,0.68,0.82,0.82,2.14,36,1,0,0,1,0,0,0,0,1,36,2,0,0,0,0,0,0,0,2,23,0,0,0,0,0,0,0,0,0,25,0,0,0,0,0,0,0,0,0,41,1,0,0,0,0,0,0,0,0,42,0,0,0,0,0,0,0,0,0,0,0,0,0,0,0,0,0,0,0,0,0,0,0,0,0,0,0,0,0,0,0,0,0,0,0,0,0,0,0,0,0,0,0,0,0,0,0,0,0,0,0,0,0,0,0,0,0,0,0,0,0,0,0,0,0,0,0,0,0
P.S. 050 VITO MARCANTONIO,40.785868,-73.940587,NEW YORK,Yes,0.89,302.9544,0.1,0.01,0.45,0.53,0.98,0,0.87,0.49,0.87,0.74,0.89,0.67,0.79,0.84,2.1,30,1,0,0,0,0,0,0,0,1,30,1,0,0,0,0,0,0,0,1,25,1,0,1,0,0,0,0,0,1,26,1,0,0,1,0,0,0,0,0,30,0,0,0,0,0,0,0,0,0,31,0,0,0,0,0,0,0,0,0,22,1,0,0,1,0,0,0,0,0,22,0,0,0,0,0,0,0,0,0,27,0,0,0,0,0,0,0,0,0,28,0,0,0,0,0,0,0,0,0,30,0,0,0,0,0,0,0,0,0,29,0,0,0,0,0,0,0,0,0
JAMES WELDON JOHNSON,40.797156,-73.941285,NEW YORK,No,0.885,269.0507,0.12,0.04,0.26,0.67,0.93,0.02,0.92,0.28,0.92,0.85,0.85,0.81,0.82,0.91,2.46,86,2,0,0,1,0,0,0,0,1,86,3,0,0,1,0,0,0,0,3,86,14,0,3,8,3,0,0,0,13,86,12,0,1,9,2,0,0,0,12,93,4,0,0,2,0,0,0,0,2,93,9,0,0,5,0,0,0,0,7,87,6,0,1,3,0,0,0,1,6,87,3,0,1,1,0,0,0,0,3,91,2,0,0,0,0,0,0,0,2,91,4,0,2,0,0,0,0,0,4,90,9,0,1,6,0,0,0,0,9,90,3,0,0,3,0,0,0,0,3
THE LEXINGTON ACADEMY,40.791451,-73.947448,NEW YORK,No,0.866,337.2815,0.11,0.01,0.13,0.83,0.95,0.03,0.92,0.3,0.9,0.9,0.94,0.82,0.87,0.92,2.32,46,0,0,0,0,0,0,0,0,0,46,4,0,0,3,0,0,0,1,0,61,3,0,0,2,0,0,0,0,0,62,6,0,0,6,0,0,0,0,0,71,3,0,0,0,0,0,0,0,0,72,1,0,0,0,0,0,0,0,0,78,2,0,0,2,0,0,0,0,2,77,5,0,0,5,0,0,0,0,5,73,0,0,0,0,0,0,0,0,0,72,2,0,0,1,0,0,0,0,2,0,0,0,0,0,0,0,0,0,0,0,0,0,0,0,0,0,0,0,0
P.S. 083 LUIS MUNOZ RIVERA,40.79313,-73.941812,NEW YORK,No,0.772,318.7434,0.09,0.13,0.2,0.64,0.84,0.03,0.93,0.25,0.88,0.9,0.9,0.85,0.87,0.98,2.76,69,9,0,3,2,0,0,0,0,8,71,18,0,4,7,5,2,0,1,15,62,11,0,1,7,0,0,0,0,6,63,8,0,1,4,0,0,0,0,7,61,6,0,1,3,0,0,0,0,3,61,17,0,1,11,0,0,0,0,14,0,0,0,0,0,0,0,0,0,0,0,0,0,0,0,0,0,0,0,0,0,0,0,0,0,0,0,0,0,0,0,0,0,0,0,0,0,0,0,0,0,0,0,0,0,0,0,0,0,0,0,0,0,0,0,0,0,0,0,0
P.S. 096 JOSEPH LANZETTA,40.799987,-73.937388,NEW YORK,No,0.902,253.9285,0.18,0.02,0.26,0.68,0.94,0.03,0.91,0.37,0.88,0.85,0.89,0.77,0.77,0.88,2.17,40,1,0,0,1,0,0,0,0,0,42,3,0,0,3,0,0,0,0,0,41,1,0,0,1,0,0,0,0,0,41,0,0,0,0,0,0,0,0,0,53,1,0,0,1,0,0,0,0,1,53,0,0,0,0,0,0,0,0,0,49,1,0,0,1,0,0,0,0,1,46,0,0,0,0,0,0,0,0,0,48,1,0,0,1,0,0,0,0,0,52,0,0,0,0,0,0,0,0,0,51,1,0,0,1,0,0,0,0,0,53,0,0,0,0,0,0,0,0,0
P.S. 102 JACQUES CARTIER,40.79495,-73.938295,NEW YORK,No,0.833,295.9037,0.12,0.08,0.3,0.55,0.85,0.04,0.91,0.35,0.86,0.78,0.84,0.68,0.87,0.88,2.32,51,4,0,1,1,1,0,0,0,2,51,6,0,1,2,3,0,0,0,5,39,7,0,1,3,0,0,0,0,6,39,9,0,1,4,0,0,0,0,8,31,0,0,0,0,0,0,0,0,0,32,0,0,0,0,0,0,0,0,0,0,0,0,0,0,0,0,0,0,0,0,0,0,0,0,0,0,0,0,0,0,0,0,0,0,0,0,0,0,0,0,0,0,0,0,0,0,0,0,0,0,0,0,0,0,0,0,0,0,0,0,0,0,0,0,0,0,0,0,0
P.S. 108 ASSEMBLYMAN ANGELO DEL TORO EDUCATIONAL COMPLEX,40.795035,-73.947872,NEW YORK,No,0.843,279.1128,0.13,0.05,0.28,0.64,0.92,0.01,0.91,0.34,0.87,0.8,0.86,0.67,0.83,0.86,2.29,46,2,0,0,1,0,0,0,0,2,46,8,0,0,7,0,0,0,1,7,46,0,0,0,0,0,0,0,0,0,46,1,0,0,0,0,0,0,0,0,50,1,0,0,0,1,0,0,0,0,49,7,0,1,1,5,0,0,0,4,86,2,0,0,2,0,0,0,0,1,86,0,0,0,0,0,0,0,0,0,84,2,0,0,0,0,0,0,0,2,81,1,0,0,0,0,0,0,0,1,86,8,0,2,4,0,0,0,0,5,85,0,0,0,0,0,0,0,0,0
P.S. 146 ANN M. SHORT,40.7897,-73.939094,NEW YORK,No,0.903,294.1474,0.19,0.03,0.26,0.68,0.94,0.02,0.92,0.29,0.77,0.71,0.8,0.65,0.9,0.84,2.14,47,0,0,0,0,0,0,0,0,0,47,2,0,0,1,0,0,0,0,0,64,0,0,0,0,0,0,0,0,0,63,3,0,0,1,0,0,0,1,3,32,0,0,0,0,0,0,0,0,0,32,1,0,0,0,0,0,0,0,1,0,0,0,0,0,0,0,0,0,0,0,0,0,0,0,0,0,0,0,0,0,0,0,0,0,0,0,0,0,0,0,0,0,0,0,0,0,0,0,0,0,0,0,0,0,0,0,0,0,0,0,0,0,0,0,0,0,0,0,0
P.S. 155 WILLIAM PACA,40.797495,-73.936193,NEW YORK,No,0.902,275.7794,0.4,0.02,0.11,0.87,0.97,0,0.93,0.25,0.84,0.79,0.91,0.74,0.85,0.79,2.16,47,2,0,0,1,0,0,0,0,2,48,2,0,0,1,0,0,0,1,2,39,3,0,0,0,0,0,0,0,3,39,6,0,0,0,0,0,0,0,6,45,0,0,0,0,0,0,0,0,0,47,1,0,0,1,0,0,0,0,0,0,0,0,0,0,0,0,0,0,0,0,0,0,0,0,0,0,0,0,0,0,0,0,0,0,0,0,0,0,0,0,0,0,0,0,0,0,0,0,0,0,0,0,0,0,0,0,0,0,0,0,0,0,0,0,0,0,0,0,0
P.S. 171 PATRICK HENRY,40.792304,-73.951449,NEW YORK,No,0.751,310.7832,0.03,0.05,0.25,0.63,0.89,0.04,0.94,0.19,0.92,0.83,0.95,0.71,0.87,0.89,2.85,67,6,0,2,3,0,0,0,0,3,67,23,0,6,13,0,0,0,0,13,75,8,0,1,5,0,0,0,0,4,75,12,0,1,9,0,0,0,0,6,51,9,0,0,8,0,0,0,0,5,51,16,0,0,9,0,0,0,0,9,89,27,0,6,16,0,0,0,0,12,88,42,0,13,22,0,0,0,0,21,91,18,0,2,15,0,0,0,0,11,91,24,0,2,17,0,0,0,0,15,89,20,0,4,13,0,0,0,0,10,89,29,0,2,23,0,0,0,0,18
THE BILINGUAL BICULTURAL SCHOOL,40.79313,-73.941812,NEW YORK,No,0.859,316.6833,0.36,0.01,0.07,0.91,0.99,0,0.94,0.18,0.93,0.85,0.91,0.6,0.84,0.8,2.37,60,1,0,0,0,0,0,0,0,0,62,6,0,0,0,0,0,0,0,0,46,4,0,0,0,0,0,0,0,0,48,7,0,0,0,0,0,0,1,0,46,0,0,0,0,0,0,0,0,0,52,1,0,0,0,0,0,0,0,0,0,0,0,0,0,0,0,0,0,0,0,0,0,0,0,0,0,0,0,0,0,0,0,0,0,0,0,0,0,0,0,0,0,0,0,0,0,0,0,0,0,0,0,0,0,0,0,0,0,0,0,0,0,0,0,0,0,0,0,0
P.S. 206 JOSE CELSO BARBOSA,40.796906,-73.929978,NEW YORK,No,0.817,273.7645,0.14,0.04,0.26,0.61,0.87,0.06,0.93,0.25,0.83,0.85,0.85,0.8,0.82,0.91,2.36,89,2,0,0,1,0,0,0,0,2,89,10,0,2,3,0,3,0,2,8,90,8,0,2,5,0,0,0,0,5,91,11,0,2,8,0,0,0,0,9,71,3,0,1,2,0,0,0,0,2,73,6,1,1,1,0,0,0,0,4,50,5,0,2,2,0,0,0,0,2,50,4,0,1,3,0,0,0,0,3,61,2,0,0,2,0,0,0,0,2,61,2,0,0,1,0,0,0,1,2,55,3,0,0,1,0,0,0,0,1,40,0,0,0,0,0,0,0,0,0
MOSAIC PREPARATORY ACADEMY,40.796046,-73.944549,NEW YORK,No,0.917,292.372,0.09,0.05,0.41,0.5,0.91,0.01,0.92,0.27,0.89,0.86,0.89,0.75,0.86,0.86,2.23,39,0,0,0,0,0,0,0,0,0,39,1,0,1,0,0,0,0,0,0,36,1,0,0,1,0,0,0,0,0,36,1,0,0,1,0,0,0,0,0,41,1,0,0,1,0,0,0,0,1,41,5,0,0,4,1,0,0,0,5,0,0,0,0,0,0,0,0,0,0,0,0,0,0,0,0,0,0,0,0,0,0,0,0,0,0,0,0,0,0,0,0,0,0,0,0,0,0,0,0,0,0,0,0,0,0,0,0,0,0,0,0,0,0,0,0,0,0,0,0
CENTRAL PARK EAST I,40.793747,-73.948572,NEW YORK,No,0.383,478.9596,0.01,0.09,0.2,0.29,0.49,0.28,0.95,0.14,1,0.97,0.98,0.95,0.96,0.94,2.67,12,0,0,0,0,0,0,0,0,0,11,0,0,0,0,0,0,0,0,0,7,0,0,0,0,0,0,0,0,0,7,0,0,0,0,0,0,0,0,0,0,0,0,0,0,0,0,0,0,0,0,0,0,0,0,0,0,0,0,0,0,0,0,0,0,0,0,0,0,0,0,0,0,0,0,0,0,0,0,0,0,0,0,0,0,0,0,0,0,0,0,0,0,0,0,0,0,0,0,0,0,0,0,0,0,0,0,0,0,0,0,0,0,0,0,0,0,0,0,0
CENTRAL PARK EAST II,40.792304,-73.951449,NEW YORK,No,0.46,428.3962,0.01,0.06,0.29,0.31,0.6,0.25,0.93,0.18,0.95,0.98,0.97,0.98,0.94,0.97,2.96,31,6,0,0,1,0,3,0,0,2,32,10,0,0,2,0,6,0,0,1,29,7,0,1,1,0,0,3,0,1,29,6,0,1,0,0,0,2,0,1,26,2,0,0,1,0,1,0,0,0,27,6,0,1,1,0,0,0,0,0,25,0,0,0,0,0,0,0,0,0,24,0,0,0,0,0,0,0,0,0,0,0,0,0,0,0,0,0,0,0,0,0,0,0,0,0,0,0,0,0,0,0,0,0,0,0,0,0,0,0,0,0,0,0,0,0,0,0,0,0
P.S. 030 HERNANDEZ/HUGHES,40.805584,-73.935484,NEW YORK,No,0.896,265.8116,0.09,0.02,0.47,0.47,0.94,0.03,0.89,0.4,0.94,0.91,0.92,0.83,0.88,0.92,2.27,33,1,0,0,0,0,0,0,0,0,33,2,0,0,1,0,0,0,0,0,57,1,0,0,0,0,0,0,0,0,57,0,0,0,0,0,0,0,0,0,33,2,0,0,0,0,0,0,0,0,35,1,0,0,0,0,0,0,1,1,0,0,0,0,0,0,0,0,0,0,0,0,0,0,0,0,0,0,0,0,0,0,0,0,0,0,0,0,0,0,0,0,0,0,0,0,0,0,0,0,0,0,0,0,0,0,0,0,0,0,0,0,0,0,0,0,0,0,0,0
P.S. 036 MARGARET DOUGLAS,40.810705,-73.957404,NEW YORK,No,0.839,359.3205,0.07,0.01,0.45,0.51,0.97,0.01,0.9,0.44,0.9,0.81,0.83,0.72,0.82,0.87,2.19,54,1,0,0,1,0,0,0,0,1,53,5,0,0,3,0,0,0,0,5,54,2,0,0,0,0,0,0,0,0,55,1,0,0,0,0,0,0,0,0,50,0,0,0,0,0,0,0,0,0,49,1,0,0,0,0,0,0,0,0,0,0,0,0,0,0,0,0,0,0,0,0,0,0,0,0,0,0,0,0,0,0,0,0,0,0,0,0,0,0,0,0,0,0,0,0,0,0,0,0,0,0,0,0,0,0,0,0,0,0,0,0,0,0,0,0,0,0,0,0
P.S. 046 ARTHUR TAPPAN,40.831496,-73.936154,NEW YORK,No,0.903,230.3578,0.09,0.01,0.5,0.48,0.97,0.01,0.9,0.39,0.91,0.89,0.85,0.81,0.8,0.9,2.19,78,2,0,1,0,0,0,0,0,2,79,3,0,1,0,0,0,0,0,3,78,3,0,0,2,0,0,0,0,3,79,0,0,0,0,0,0,0,0,0,83,2,0,0,0,0,0,0,0,0,83,1,0,1,0,0,0,0,0,0,61,0,0,0,0,0,0,0,0,0,64,0,0,0,0,0,0,0,0,0,58,3,0,0,3,0,0,0,0,0,58,0,0,0,0,0,0,0,0,0,63,3,0,0,0,0,0,0,0,3,63,1,0,0,0,0,0,0,0,1
P.S. 092 MARY MCLEOD BETHUNE,40.814949,-73.945808,NEW YORK,No,0.897,328.6504,0.12,0.01,0.61,0.34,0.95,0.03,0.9,0.37,0.87,0.88,0.91,0.78,0.86,0.9,2.2,43,0,0,0,0,0,0,0,0,0,42,0,0,0,0,0,0,0,0,0,37,3,0,1,2,0,0,0,0,0,38,4,0,2,2,0,0,0,0,0,45,1,0,0,0,0,0,0,0,0,46,1,0,0,0,0,0,0,0,0,0,0,0,0,0,0,0,0,0,0,0,0,0,0,0,0,0,0,0,0,0,0,0,0,0,0,0,0,0,0,0,0,0,0,0,0,0,0,0,0,0,0,0,0,0,0,0,0,0,0,0,0,0,0,0,0,0,0,0,0
P.S. 123 MAHALIA JACKSON,40.820192,-73.944457,NEW YORK,Yes,0.835,347.5253,0.17,0.02,0.52,0.41,0.93,0.04,0.88,0.49,0.83,0.72,0.84,0.65,0.82,0.81,2.11,41,0,0,0,0,0,0,0,0,0,43,0,0,0,0,0,0,0,0,0,53,3,0,3,0,0,0,0,0,0,52,0,0,0,0,0,0,0,0,0,51,2,0,0,0,0,0,0,0,0,54,1,0,0,0,0,0,0,0,0,51,2,0,2,0,0,0,0,0,2,53,1,0,1,0,0,0,0,0,0,53,0,0,0,0,0,0,0,0,0,55,0,0,0,0,0,0,0,0,0,56,1,0,1,0,0,0,0,0,1,60,0,0,0,0,0,0,0,0,0
P.S. 125 RALPH BUNCHE,40.81064,-73.955847,NEW YORK,No,0.805,358.9153,0.11,0.06,0.43,0.42,0.85,0.07,0.91,0.38,0.83,0.9,0.96,0.92,0.89,0.95,2.81,10,0,0,0,0,0,0,0,0,0,10,3,0,0,0,0,0,0,0,0,18,1,0,0,1,0,0,0,0,0,18,4,0,2,0,0,0,0,0,0,18,0,0,0,0,0,0,0,0,0,19,1,0,1,0,0,0,0,0,0,0,0,0,0,0,0,0,0,0,0,0,0,0,0,0,0,0,0,0,0,0,0,0,0,0,0,0,0,0,0,0,0,0,0,0,0,0,0,0,0,0,0,0,0,0,0,0,0,0,0,0,0,0,0,0,0,0,0,0,0
P.S. 129 JOHN H. FINLEY,40.814981,-73.952121,NEW YORK,No,0.854,310.7789,0.11,0.02,0.42,0.51,0.93,0.01,0.92,0.33,0.9,0.91,0.82,0.76,0.81,0.89,2.38,38,5,0,2,2,0,0,0,0,0,39,7,0,2,3,0,0,0,0,0,49,5,0,0,2,0,0,0,0,0,49,1,0,0,0,0,0,0,0,0,61,5,0,3,0,0,0,0,0,5,65,7,0,2,0,0,0,0,0,7,34,0,0,0,0,0,0,0,0,0,38,0,0,0,0,0,0,0,0,0,36,0,0,0,0,0,0,0,0,0,38,0,0,0,0,0,0,0,0,0,56,3,0,0,3,0,0,0,0,2,56,0,0,0,0,0,0,0,0,0
P.S. 133 FRED R MOORE,40.809663,-73.939148,NEW YORK,No,0.875,333.4403,0.06,0.04,0.52,0.37,0.89,0.05,0.91,0.34,0.84,0.73,0.76,0.47,0.76,0.77,2.21,24,0,0,0,0,0,0,0,0,0,24,3,0,1,0,0,0,0,0,0,38,0,0,0,0,0,0,0,0,0,38,0,0,0,0,0,0,0,0,0,31,0,0,0,0,0,0,0,0,0,31,0,0,0,0,0,0,0,0,0,0,0,0,0,0,0,0,0,0,0,0,0,0,0,0,0,0,0,0,0,0,0,0,0,0,0,0,0,0,0,0,0,0,0,0,0,0,0,0,0,0,0,0,0,0,0,0,0,0,0,0,0,0,0,0,0,0,0,0,0
P.S. 154 HARRIET TUBMAN,40.810555,-73.948862,NEW YORK,Yes,0.899,283.5899,0.15,0.04,0.55,0.36,0.9,0.04,0.92,0.31,0.91,0.87,0.93,0.79,0.82,0.85,2.15,36,1,0,0,0,0,0,0,0,1,37,0,0,0,0,0,0,0,0,0,36,1,0,1,0,0,0,0,0,1,36,0,0,0,0,0,0,0,0,0,33,2,0,0,0,0,0,0,0,0,35,2,0,0,1,0,0,0,0,0,0,0,0,0,0,0,0,0,0,0,0,0,0,0,0,0,0,0,0,0,0,0,0,0,0,0,0,0,0,0,0,0,0,0,0,0,0,0,0,0,0,0,0,0,0,0,0,0,0,0,0,0,0,0,0,0,0,0,0,0
P.S. 161 PEDRO ALBIZU CAMPOS,40.817721,-73.952459,NEW YORK,No,0.875,298.5402,0.27,0.03,0.18,0.77,0.95,0.01,0.91,0.35,0.89,0.89,0.85,0.79,0.86,0.9,2.28,69,0,0,0,0,0,0,0,0,0,70,6,0,0,6,0,0,0,1,0,77,1,0,0,1,0,0,0,0,0,81,7,0,0,5,0,0,0,0,0,109,2,0,0,2,0,0,0,0,0,112,11,0,0,9,0,0,0,1,11,112,7,0,0,6,0,0,0,0,7,114,12,0,0,10,0,0,0,1,12,100,4,0,0,3,0,0,0,0,3,101,1,0,0,1,0,0,0,0,1,113,5,0,0,5,0,0,0,0,5,117,0,0,0,0,0,0,0,0,0
P.S. 175 HENRY H GARNET,40.814259,-73.942662,NEW YORK,No,0.893,342.738,0.12,0.02,0.64,0.3,0.93,0.04,0.91,0.39,0.93,0.92,0.91,0.78,0.84,0.87,2.14,48,0,0,0,0,0,0,0,0,0,52,8,0,3,0,0,0,0,5,0,52,2,0,2,0,0,0,0,0,2,53,3,0,2,0,0,0,0,0,3,58,4,0,4,0,0,0,0,0,0,60,3,0,2,0,0,0,0,0,0,0,0,0,0,0,0,0,0,0,0,0,0,0,0,0,0,0,0,0,0,0,0,0,0,0,0,0,0,0,0,0,0,0,0,0,0,0,0,0,0,0,0,0,0,0,0,0,0,0,0,0,0,0,0,0,0,0,0,0,0
P.S. 194 COUNTEE CULLEN,40.821182,-73.940665,NEW YORK,Yes,0.898,305.1996,0.18,0.02,0.52,0.4,0.92,0.03,0.9,0.47,0.91,0.73,0.94,0.49,0.87,0.67,2,34,1,0,0,0,0,0,0,0,1,34,2,0,0,0,0,0,0,0,0,29,0,0,0,0,0,0,0,0,0,31,0,0,0,0,0,0,0,0,0,24,0,0,0,0,0,0,0,0,0,24,1,0,0,0,0,0,0,0,0,0,0,0,0,0,0,0,0,0,0,0,0,0,0,0,0,0,0,0,0,0,0,0,0,0,0,0,0,0,0,0,0,0,0,0,0,0,0,0,0,0,0,0,0,0,0,0,0,0,0,0,0,0,0,0,0,0,0,0,0
P.S. 197 JOHN B. RUSSWURM,40.813298,-73.937828,NEW YORK,No,0.874,347.971,0.06,0,0.62,0.33,0.95,0.03,0.88,0.47,0.94,0.92,0.92,0.92,0.92,0.95,2.21,42,1,0,0,0,0,0,0,0,0,44,1,0,0,0,0,0,0,0,0,46,3,0,2,0,0,0,0,0,3,46,4,0,3,0,0,0,0,0,4,35,0,0,0,0,0,0,0,0,0,35,0,0,0,0,0,0,0,0,0,0,0,0,0,0,0,0,0,0,0,0,0,0,0,0,0,0,0,0,0,0,0,0,0,0,0,0,0,0,0,0,0,0,0,0,0,0,0,0,0,0,0,0,0,0,0,0,0,0,0,0,0,0,0,0,0,0,0,0,0
P.S. 200- THE JAMES MCCUNE SMITH SCHOOL,40.823955,-73.935802,NEW YORK,No,0.892,346.1048,0.11,0,0.54,0.4,0.94,0.02,0.88,0.46,0.83,0.88,0.89,0.81,0.85,0.92,2.12,65,0,0,0,0,0,0,0,0,0,69,2,0,0,1,0,0,0,0,1,76,0,0,0,0,0,0,0,0,0,79,2,0,1,0,0,0,0,0,2,64,0,0,0,0,0,0,0,0,0,65,1,0,0,0,0,0,0,0,1,0,0,0,0,0,0,0,0,0,0,0,0,0,0,0,0,0,0,0,0,0,0,0,0,0,0,0,0,0,0,0,0,0,0,0,0,0,0,0,0,0,0,0,0,0,0,0,0,0,0,0,0,0,0,0,0,0,0,0,0
THURGOOD MARSHALL ACADEMY LOWER SCHOOL,40.825964,-73.937942,NEW YORK,No,0.783,334.6658,0.02,0.03,0.79,0.14,0.93,0.01,0.91,0.31,0.97,0.91,0.89,0.84,0.93,0.92,2.59,37,1,0,1,0,0,0,0,0,1,37,3,0,1,0,0,0,0,0,2,32,9,0,5,4,0,0,0,0,6,32,11,0,7,3,0,0,0,0,8,43,3,0,3,0,0,0,0,0,0,43,4,0,4,0,0,0,0,0,0,0,0,0,0,0,0,0,0,0,0,0,0,0,0,0,0,0,0,0,0,0,0,0,0,0,0,0,0,0,0,0,0,0,0,0,0,0,0,0,0,0,0,0,0,0,0,0,0,0,0,0,0,0,0,0,0,0,0,0,0
P.S. 004 DUKE ELLINGTON,40.834847,-73.941204,NEW YORK,No,0.844,346.8421,0.4,0.01,0.08,0.91,0.98,0,0.92,0.33,0.91,0.84,0.87,0.74,0.82,0.88,2.24,103,3,0,0,0,0,0,0,0,2,110,9,0,0,9,0,0,0,1,6,100,7,0,0,5,0,0,0,0,5,103,4,0,0,4,0,0,0,0,4,81,1,0,0,1,0,0,0,0,0,89,7,0,0,7,0,0,0,0,5,0,0,0,0,0,0,0,0,0,0,0,0,0,0,0,0,0,0,0,0,0,0,0,0,0,0,0,0,0,0,0,0,0,0,0,0,0,0,0,0,0,0,0,0,0,0,0,0,0,0,0,0,0,0,0,0,0,0,0,0
P.S. 005 ELLEN LURIE,40.85892,-73.922428,NEW YORK,No,0.851,297.836,0.46,0.01,0.06,0.92,0.98,0,0.93,0.26,0.89,0.86,0.9,0.68,0.86,0.89,2.11,90,0,0,0,0,0,0,0,0,0,90,5,0,0,4,0,0,0,0,3,90,7,0,0,7,0,0,0,0,4,93,12,0,0,11,0,0,0,1,10,69,1,0,0,1,0,0,0,0,1,76,0,0,0,0,0,0,0,0,0,0,0,0,0,0,0,0,0,0,0,0,0,0,0,0,0,0,0,0,0,0,0,0,0,0,0,0,0,0,0,0,0,0,0,0,0,0,0,0,0,0,0,0,0,0,0,0,0,0,0,0,0,0,0,0,0,0,0,0,0
P.S. 008 LUIS BELLIARD,40.839384,-73.936783,NEW YORK,No,0.841,335.2945,0.31,0,0.04,0.96,0.99,0.01,0.93,0.2,0.91,0.86,0.85,0.82,0.89,0.91,2.25,88,0,0,0,0,0,0,0,0,0,93,1,0,0,1,0,0,0,0,0,91,2,0,0,0,0,0,0,0,0,92,4,0,0,0,0,0,0,0,0,60,1,0,0,0,0,0,0,0,1,60,1,0,0,0,0,0,0,0,1,0,0,0,0,0,0,0,0,0,0,0,0,0,0,0,0,0,0,0,0,0,0,0,0,0,0,0,0,0,0,0,0,0,0,0,0,0,0,0,0,0,0,0,0,0,0,0,0,0,0,0,0,0,0,0,0,0,0,0,0
P.S. 018 PARK TERRACE,40.871646,-73.911618,NEW YORK,No,0.823,440.0621,0.44,0,0.01,0.97,0.98,0.02,0.93,0.23,0.92,0.87,0.86,0.79,0.85,0.9,2.1,37,2,0,0,0,0,0,0,0,2,39,8,0,0,0,0,0,0,2,8,37,2,0,0,2,0,0,0,0,1,39,0,0,0,0,0,0,0,0,0,31,1,0,0,1,0,0,0,0,1,32,3,0,0,3,0,0,0,1,2,49,0,0,0,0,0,0,0,0,0,49,0,0,0,0,0,0,0,0,0,40,2,0,0,0,0,0,0,0,1,42,1,0,0,0,0,0,0,0,1,42,1,0,0,1,0,0,0,0,1,43,8,0,0,8,0,0,0,0,7
P.S. 028 WRIGHT BROTHERS,40.831655,-73.942079,NEW YORK,No,0.901,370.1504,0.32,0.01,0.12,0.84,0.95,0.04,0.94,0.2,0.96,0.96,0.96,0.87,0.85,0.95,2.32,101,2,0,0,2,0,0,0,0,1,102,20,0,0,20,0,0,0,3,16,109,3,0,0,2,0,0,0,0,2,113,8,0,0,7,0,0,0,1,5,99,2,0,0,1,0,0,0,0,1,103,11,0,0,8,0,0,0,0,6,0,0,0,0,0,0,0,0,0,0,0,0,0,0,0,0,0,0,0,0,0,0,0,0,0,0,0,0,0,0,0,0,0,0,0,0,0,0,0,0,0,0,0,0,0,0,0,0,0,0,0,0,0,0,0,0,0,0,0,0
P.S. 048 P.O. MICHAEL J. BUCZEK,40.853324,-73.933497,NEW YORK,No,0.801,456.886,0.3,0.01,0.01,0.96,0.97,0.02,0.94,0.16,0.86,0.88,0.89,0.83,0.84,0.94,2.26,107,0,0,0,0,0,0,0,0,0,111,4,0,0,0,0,0,0,0,4,92,5,0,0,0,0,0,0,0,4,93,3,0,0,0,0,0,0,0,3,71,1,0,0,0,0,0,0,0,0,71,4,0,0,0,0,0,0,0,0,0,0,0,0,0,0,0,0,0,0,0,0,0,0,0,0,0,0,0,0,0,0,0,0,0,0,0,0,0,0,0,0,0,0,0,0,0,0,0,0,0,0,0,0,0,0,0,0,0,0,0,0,0,0,0,0,0,0,0,0
P.S. 098 SHORAC KAPPOCK,40.867823,-73.917818,NEW YORK,No,0.856,401.5107,0.38,0.01,0.02,0.94,0.96,0.03,0.93,0.26,0.85,0.74,0.87,0.69,0.86,0.84,2.15,92,0,0,0,0,0,0,0,0,0,94,2,0,0,2,0,0,0,0,2,90,2,0,0,0,0,0,0,0,2,93,2,0,0,0,0,0,0,0,2,57,2,0,0,0,0,0,0,0,0,58,2,0,0,0,0,0,0,0,0,0,0,0,0,0,0,0,0,0,0,0,0,0,0,0,0,0,0,0,0,0,0,0,0,0,0,0,0,0,0,0,0,0,0,0,0,0,0,0,0,0,0,0,0,0,0,0,0,0,0,0,0,0,0,0,0,0,0,0,0
P.S. 115 ALEXANDER HUMBOLDT,40.846134,-73.935144,NEW YORK,No,0.882,305.6926,0.33,0,0.01,0.96,0.97,0.02,0.92,0.27,0.93,0.88,0.94,0.72,0.84,0.89,2.13,67,1,0,0,0,0,0,0,0,0,68,4,0,0,0,0,0,0,0,0,79,3,0,0,0,0,0,0,0,0,83,1,0,0,0,0,0,0,0,0,89,1,0,0,0,0,0,0,0,0,92,2,0,0,0,0,0,0,1,0,0,0,0,0,0,0,0,0,0,0,0,0,0,0,0,0,0,0,0,0,0,0,0,0,0,0,0,0,0,0,0,0,0,0,0,0,0,0,0,0,0,0,0,0,0,0,0,0,0,0,0,0,0,0,0,0,0,0,0,0
P.S. 128 AUDUBON,40.841047,-73.938751,NEW YORK,No,0.817,347.6756,0.28,0.01,0.03,0.95,0.98,0.01,0.91,0.29,0.92,0.93,0.94,0.89,0.89,0.94,2.2,76,0,0,0,0,0,0,0,0,0,79,18,0,0,0,0,0,0,7,0,85,9,0,0,0,0,0,0,0,0,92,8,0,0,0,0,0,0,1,0,72,2,0,0,0,0,0,0,0,0,75,1,0,0,0,0,0,0,0,0,0,0,0,0,0,0,0,0,0,0,0,0,0,0,0,0,0,0,0,0,0,0,0,0,0,0,0,0,0,0,0,0,0,0,0,0,0,0,0,0,0,0,0,0,0,0,0,0,0,0,0,0,0,0,0,0,0,0,0,0
P.S. 132 JUAN PABLO DUARTE,40.850543,-73.933933,NEW YORK,Yes,0.857,352.1009,0.46,0,0.01,0.98,0.99,0.01,0.95,0.14,0.87,0.8,0.9,0.72,0.85,0.84,2.22,90,1,0,0,0,0,0,0,0,1,91,1,0,0,0,0,0,0,0,1,109,7,0,0,0,0,0,0,0,6,111,10,0,0,0,0,0,0,0,9,72,0,0,0,0,0,0,0,0,0,75,0,0,0,0,0,0,0,0,0,0,0,0,0,0,0,0,0,0,0,0,0,0,0,0,0,0,0,0,0,0,0,0,0,0,0,0,0,0,0,0,0,0,0,0,0,0,0,0,0,0,0,0,0,0,0,0,0,0,0,0,0,0,0,0,0,0,0,0,0
P.S. 152 DYCKMAN VALLEY,40.860052,-73.927601,NEW YORK,No,0.869,390.4345,0.29,0,0.02,0.96,0.98,0.01,0.94,0.22,0.91,0.87,0.89,0.79,0.84,0.88,2.25,96,7,0,0,0,0,0,0,0,0,97,10,0,0,0,0,0,0,0,0,82,3,0,0,3,0,0,0,0,0,84,9,0,0,9,0,0,0,0,0,79,0,0,0,0,0,0,0,0,0,82,0,0,0,0,0,0,0,0,0,0,0,0,0,0,0,0,0,0,0,0,0,0,0,0,0,0,0,0,0,0,0,0,0,0,0,0,0,0,0,0,0,0,0,0,0,0,0,0,0,0,0,0,0,0,0,0,0,0,0,0,0,0,0,0,0,0,0,0,0
P.S. 153 ADAM CLAYTON POWELL,40.826477,-73.947458,NEW YORK,No,0.834,371.0207,0.29,0.02,0.2,0.74,0.94,0.03,0.93,0.26,0.96,0.86,0.95,0.82,0.87,0.86,2.34,116,8,0,1,4,0,0,0,0,4,117,21,0,2,13,0,0,0,1,13,105,22,0,0,13,0,0,0,1,18,108,15,0,0,10,0,0,0,1,13,90,9,0,0,7,0,0,0,0,8,93,10,0,2,8,0,0,0,0,9,0,0,0,0,0,0,0,0,0,0,0,0,0,0,0,0,0,0,0,0,0,0,0,0,0,0,0,0,0,0,0,0,0,0,0,0,0,0,0,0,0,0,0,0,0,0,0,0,0,0,0,0,0,0,0,0,0,0,0,0
P.S. 173,40.84562,-73.939738,NEW YORK,No,0.75,390.1066,0.16,0.03,0.03,0.92,0.94,0.03,0.93,0.24,0.9,0.76,0.87,0.64,0.77,0.8,2.36,84,1,0,0,1,0,0,0,0,1,87,5,0,0,4,0,0,0,1,3,91,6,0,0,0,0,0,0,0,6,97,8,0,0,8,0,0,0,1,6,82,6,0,0,6,0,0,0,0,6,87,3,0,0,3,0,0,0,0,3,0,0,0,0,0,0,0,0,0,0,0,0,0,0,0,0,0,0,0,0,0,0,0,0,0,0,0,0,0,0,0,0,0,0,0,0,0,0,0,0,0,0,0,0,0,0,0,0,0,0,0,0,0,0,0,0,0,0,0,0
PROFESSOR JUAN BOSCH PUBLIC SCHOOL,40.859317,-73.928232,NEW YORK,No,0.721,461.9282,0.14,0.01,0.02,0.84,0.86,0.12,0.95,0.11,0.96,0.97,0.95,0.92,0.92,0.99,2.69,57,2,0,0,1,0,0,0,0,1,57,16,0,0,13,0,0,0,0,11,50,3,0,0,0,0,0,0,0,0,50,4,0,0,2,0,0,0,0,2,35,3,0,0,2,0,0,0,0,2,35,3,0,0,2,0,0,0,0,2,0,0,0,0,0,0,0,0,0,0,0,0,0,0,0,0,0,0,0,0,0,0,0,0,0,0,0,0,0,0,0,0,0,0,0,0,0,0,0,0,0,0,0,0,0,0,0,0,0,0,0,0,0,0,0,0,0,0,0,0
P.S./I.S. 187 HUDSON CLIFFS,40.856137,-73.937295,NEW YORK,No,0.406,686.1555,0.07,0.02,0.03,0.58,0.61,0.34,0.95,0.11,0.91,0.91,0.88,0.82,0.9,0.89,2.84,91,27,0,0,7,0,15,0,0,2,91,38,0,0,10,0,22,0,2,7,79,35,0,0,8,0,23,0,0,8,79,39,0,0,10,0,22,0,0,9,86,9,0,0,2,0,0,0,0,2,86,10,0,0,1,0,0,0,0,2,97,13,0,0,5,0,7,0,0,3,97,22,0,0,10,0,8,0,1,9,88,9,0,0,4,0,4,0,0,3,89,8,0,0,1,0,6,0,0,0,68,9,0,0,4,0,4,0,0,5,47,0,0,0,0,0,0,0,0,0
P.S. 189,40.853091,-73.927999,NEW YORK,No,0.872,365.1102,0.29,0,0.01,0.96,0.97,0.02,0.94,0.18,0.9,0.86,0.91,0.8,0.85,0.89,2.3,159,3,0,0,0,0,0,0,0,2,163,11,0,0,0,0,0,0,0,10,162,9,0,0,0,0,0,0,0,8,171,9,0,0,0,0,0,0,0,7,118,7,0,0,0,0,0,0,0,5,122,9,0,0,0,0,0,0,0,5,0,0,0,0,0,0,0,0,0,0,0,0,0,0,0,0,0,0,0,0,0,0,0,0,0,0,0,0,0,0,0,0,0,0,0,0,0,0,0,0,0,0,0,0,0,0,0,0,0,0,0,0,0,0,0,0,0,0,0,0
P.S. 192 JACOB H. SCHIFF,40.820988,-73.952995,NEW YORK,No,0.829,410.5633,0.25,0,0.07,0.92,0.98,0.01,0.92,0.26,0.92,0.83,0.93,0.69,0.88,0.82,2.2,53,1,0,0,0,0,0,0,0,0,55,1,0,0,0,0,0,0,0,0,31,0,0,0,0,0,0,0,0,0,32,2,0,0,0,0,0,0,1,2,39,1,0,0,0,0,0,0,0,0,43,2,0,0,0,0,0,0,0,0,0,0,0,0,0,0,0,0,0,0,0,0,0,0,0,0,0,0,0,0,0,0,0,0,0,0,0,0,0,0,0,0,0,0,0,0,0,0,0,0,0,0,0,0,0,0,0,0,0,0,0,0,0,0,0,0,0,0,0,0
P.S./I.S. 210 - TWENTY-FIRST CENTURY ACADEMY FOR COMMUNITY LEADERSHIP,40.830009,-73.944648,NEW YORK,No,0.8,365.752,0.33,0.01,0.03,0.96,0.99,0,0.95,0.12,0.94,0.92,0.91,0.83,0.86,0.91,2.46,34,2,0,0,0,0,0,0,0,0,36,8,0,0,0,0,0,0,1,0,45,2,0,0,0,0,0,0,1,0,47,8,0,0,0,0,0,0,2,0,40,1,0,0,0,0,0,0,0,0,40,1,0,0,0,0,0,0,0,1,45,3,0,0,3,0,0,0,0,0,45,2,0,0,2,0,0,0,0,0,50,2,0,0,0,0,0,0,0,0,51,2,0,0,0,0,0,0,0,0,45,3,0,0,0,0,0,0,0,0,46,2,0,0,0,0,0,0,0,0
PAULA HEDBAVNY SCHOOL,40.871567,-73.912337,NEW YORK,No,0.604,507.6771,0.12,0.02,0.03,0.77,0.8,0.17,0.95,0.13,0.97,0.96,0.94,0.9,0.86,0.96,2.76,44,5,0,0,2,0,0,0,0,0,44,6,0,0,2,0,0,0,0,0,54,9,0,0,4,0,0,0,0,4,53,6,0,0,4,0,0,0,0,3,49,5,0,0,2,0,0,0,0,3,49,5,0,0,1,0,0,0,0,1,65,13,0,0,7,0,0,0,0,7,65,19,0,0,11,0,0,0,0,5,65,7,0,0,3,0,0,0,0,3,64,21,0,0,16,0,0,0,0,14,57,9,0,0,8,0,0,0,0,5,44,7,0,0,7,0,0,0,0,4
AMISTAD DUAL LANGUAGE SCHOOL,40.866522,-73.923818,NEW YORK,No,0.713,426.1002,0.22,0.02,0.01,0.91,0.93,0.05,0.96,0.07,0.86,0.89,0.86,0.8,0.92,0.91,2.45,45,1,0,0,0,0,0,0,0,0,45,7,0,0,0,0,0,0,1,2,48,5,0,0,1,0,0,0,0,1,48,6,0,0,2,0,0,0,0,2,45,1,0,0,1,0,0,0,0,1,45,1,0,0,1,0,0,0,0,1,33,1,0,0,0,0,0,0,0,1,34,0,0,0,0,0,0,0,0,0,43,2,0,0,0,0,0,0,0,1,43,2,0,0,0,0,0,0,0,1,39,3,0,0,0,0,0,0,0,3,39,1,0,0,0,0,0,0,0,0
MUSCOTA,40.866522,-73.923818,NEW YORK,No,0.429,527.8149,0.04,0.04,0.03,0.46,0.49,0.42,0.95,0.07,0.99,0.96,0.97,0.95,0.96,0.96,2.98,34,7,0,0,0,0,0,0,0,1,34,12,0,0,3,0,0,0,0,4,30,7,0,0,1,0,0,0,0,1,30,5,0,0,1,0,0,0,0,2,22,7,0,0,6,0,1,0,0,0,22,6,0,0,4,0,2,0,0,1,0,0,0,0,0,0,0,0,0,0,0,0,0,0,0,0,0,0,0,0,0,0,0,0,0,0,0,0,0,0,0,0,0,0,0,0,0,0,0,0,0,0,0,0,0,0,0,0,0,0,0,0,0,0,0,0,0,0,0,0
P.S. 325,40.820988,-73.952995,NEW YORK,No,0.864,408.2812,0.32,0,0.05,0.91,0.96,0.04,0.93,0.27,0.88,0.88,0.93,0.78,0.83,0.91,2.14,34,0,0,0,0,0,0,0,0,0,35,0,0,0,0,0,0,0,0,0,36,1,0,0,0,0,0,0,0,0,37,0,0,0,0,0,0,0,0,0,44,1,0,0,0,0,0,0,0,0,43,0,0,0,0,0,0,0,0,0,0,0,0,0,0,0,0,0,0,0,0,0,0,0,0,0,0,0,0,0,0,0,0,0,0,0,0,0,0,0,0,0,0,0,0,0,0,0,0,0,0,0,0,0,0,0,0,0,0,0,0,0,0,0,0,0,0,0,0,0
WASHINGTON HEIGHTS ACADEMY,40.865573,-73.921602,NEW YORK,No,0.777,365.5991,0.17,0.02,0.01,0.94,0.95,0.02,0.94,0.13,0.95,0.89,0.92,0.84,0.88,0.92,2.57,52,7,0,0,7,0,0,0,0,5,53,6,0,0,0,0,0,0,1,5,57,7,0,0,6,0,0,0,0,0,56,7,0,0,6,0,0,0,0,0,43,2,0,0,0,0,0,0,0,0,43,6,0,0,0,0,0,0,0,0,61,8,0,0,0,0,0,0,0,7,61,15,0,0,0,0,0,0,1,14,48,5,0,0,4,0,0,0,0,4,48,3,0,0,3,0,0,0,0,1,0,0,0,0,0,0,0,0,0,0,0,0,0,0,0,0,0,0,0,0
HAMILTON HEIGHTS SCHOOL,40.826477,-73.947458,NEW YORK,No,0.756,383.2528,0.16,0.05,0.19,0.58,0.77,0.15,0.92,0.27,0.95,0.93,0.85,0.88,0.93,0.92,2.22,14,0,0,0,0,0,0,0,0,0,18,0,0,0,0,0,0,0,0,0,14,0,0,0,0,0,0,0,0,0,15,2,0,0,2,0,0,0,0,0,26,2,0,0,1,0,0,0,0,2,24,2,0,0,1,0,0,0,0,1,0,0,0,0,0,0,0,0,0,0,0,0,0,0,0,0,0,0,0,0,0,0,0,0,0,0,0,0,0,0,0,0,0,0,0,0,0,0,0,0,0,0,0,0,0,0,0,0,0,0,0,0,0,0,0,0,0,0,0,0
P.S. 001 COURTLANDT SCHOOL,40.819101,-73.91941,BRONX,No,0.915,231.4432,0.25,0,0.23,0.74,0.97,0.02,0.92,0.33,0.9,0.89,0.9,0.78,0.83,0.91,2.19,97,0,0,0,0,0,0,0,0,0,97,2,0,0,1,0,0,0,1,2,96,3,0,1,2,0,0,0,0,3,99,2,0,1,1,0,0,0,0,2,108,0,0,0,0,0,0,0,0,0,111,2,0,0,1,0,0,0,0,0,0,0,0,0,0,0,0,0,0,0,0,0,0,0,0,0,0,0,0,0,0,0,0,0,0,0,0,0,0,0,0,0,0,0,0,0,0,0,0,0,0,0,0,0,0,0,0,0,0,0,0,0,0,0,0,0,0,0,0,0
P.S. 5 PORT MORRIS,40.813613,-73.908429,BRONX,No,0.905,227.547,0.24,0,0.27,0.71,0.98,0.01,0.91,0.36,0.9,0.87,0.81,0.79,0.82,0.85,2.15,73,1,0,0,1,0,0,0,1,0,75,5,0,0,4,0,0,0,1,0,73,3,0,0,1,0,0,0,0,0,75,4,0,0,3,0,0,0,0,0,79,0,0,0,0,0,0,0,0,0,84,2,0,0,2,0,0,0,0,0,67,0,0,0,0,0,0,0,0,0,70,0,0,0,0,0,0,0,0,0,83,2,0,0,1,0,0,0,0,0,87,3,0,0,3,0,0,0,0,0,80,2,0,0,2,0,0,0,0,2,84,0,0,0,0,0,0,0,0,0
P.S. 018 JOHN PETER ZENGER,40.816249,-73.922585,BRONX,No,0.914,226.3563,0.26,0.02,0.29,0.64,0.94,0.03,0.92,0.29,0.88,0.9,0.9,0.82,0.83,0.93,2.17,87,2,0,0,0,0,0,0,0,2,90,10,0,0,5,0,0,0,0,9,84,3,0,0,3,0,0,0,0,0,87,6,0,0,4,0,0,0,0,0,101,5,0,0,2,0,0,0,0,5,104,2,0,0,2,0,0,0,0,0,0,0,0,0,0,0,0,0,0,0,0,0,0,0,0,0,0,0,0,0,0,0,0,0,0,0,0,0,0,0,0,0,0,0,0,0,0,0,0,0,0,0,0,0,0,0,0,0,0,0,0,0,0,0,0,0,0,0,0,0
P.S. 025 BILINGUAL SCHOOL,40.812854,-73.905725,BRONX,No,0.863,261.9438,0.14,0.01,0.11,0.87,0.97,0.01,0.93,0.23,0.93,0.89,0.91,0.8,0.82,0.9,2.37,54,0,0,0,0,0,0,0,0,0,62,7,0,0,5,0,0,0,0,0,58,9,0,0,9,0,0,0,0,9,58,10,0,0,10,0,0,0,1,10,69,2,0,0,0,0,0,0,0,0,72,3,0,0,0,0,0,0,0,0,0,0,0,0,0,0,0,0,0,0,0,0,0,0,0,0,0,0,0,0,0,0,0,0,0,0,0,0,0,0,0,0,0,0,0,0,0,0,0,0,0,0,0,0,0,0,0,0,0,0,0,0,0,0,0,0,0,0,0,0
P.S./M.S. 029 MELROSE SCHOOL,40.821611,-73.916768,BRONX,No,0.891,239.1123,0.13,0.03,0.28,0.67,0.96,0.01,0.91,0.35,0.9,0.91,0.92,0.81,0.84,0.93,2.12,74,0,0,0,0,0,0,0,0,0,74,0,0,0,0,0,0,0,0,0,83,2,0,0,1,0,0,0,0,0,81,1,0,0,0,0,0,0,0,0,76,0,0,0,0,0,0,0,0,0,75,1,0,1,0,0,0,0,0,0,74,2,0,0,2,0,0,0,0,0,75,3,0,0,1,0,0,0,0,0,87,1,0,0,1,0,0,0,0,0,89,0,0,0,0,0,0,0,0,0,93,2,0,0,2,0,0,0,0,0,65,0,0,0,0,0,0,0,0,0
P.S. 030 WILTON,40.809065,-73.91752,BRONX,No,0.923,222.8139,0.17,0.02,0.21,0.75,0.96,0.02,0.9,0.4,0.87,0.9,0.91,0.84,0.9,0.91,2.09,94,0,0,0,0,0,0,0,0,0,96,3,0,0,0,0,0,0,0,3,90,0,0,0,0,0,0,0,0,0,90,0,0,0,0,0,0,0,0,0,90,1,0,0,1,0,0,0,0,0,87,0,0,0,0,0,0,0,0,0,0,0,0,0,0,0,0,0,0,0,0,0,0,0,0,0,0,0,0,0,0,0,0,0,0,0,0,0,0,0,0,0,0,0,0,0,0,0,0,0,0,0,0,0,0,0,0,0,0,0,0,0,0,0,0,0,0,0,0,0
P.S./M.S. 031 THE WILLIAM LLOYD GARRISON,40.822539,-73.921487,BRONX,No,0.878,289.1855,0.13,0.02,0.27,0.69,0.96,0.01,0.9,0.39,0.86,0.86,0.85,0.79,0.81,0.89,2.09,55,1,0,0,1,0,0,0,0,0,57,2,0,0,1,0,0,0,0,0,61,2,0,1,1,0,0,0,0,0,60,6,0,0,6,0,0,0,0,0,54,2,0,0,2,0,0,0,0,0,58,0,0,0,0,0,0,0,0,0,70,2,0,0,2,0,0,0,0,2,72,0,0,0,0,0,0,0,0,0,79,2,0,0,1,0,0,0,0,1,78,1,0,0,0,0,0,0,0,1,85,2,0,0,1,0,0,0,0,2,70,0,0,0,0,0,0,0,0,0
P.S. 043 JONAS BRONCK,40.806419,-73.921424,BRONX,No,0.91,209.024,0.09,0,0.27,0.71,0.98,0.01,0.91,0.33,0.89,0.95,0.9,0.84,0.86,0.96,2.29,73,3,0,0,2,0,0,0,0,0,75,6,0,0,5,0,0,0,0,0,71,0,0,0,0,0,0,0,0,0,71,3,0,0,1,0,0,0,1,0,58,1,0,0,0,0,0,0,0,0,60,8,0,0,6,0,0,0,0,0,0,0,0,0,0,0,0,0,0,0,0,0,0,0,0,0,0,0,0,0,0,0,0,0,0,0,0,0,0,0,0,0,0,0,0,0,0,0,0,0,0,0,0,0,0,0,0,0,0,0,0,0,0,0,0,0,0,0,0,0
P.S. 049 WILLIS AVENUE,40.810342,-73.922626,BRONX,No,0.924,223.9238,0.16,0,0.29,0.68,0.98,0.01,0.92,0.3,0.87,0.83,0.81,0.74,0.83,0.85,2.19,83,1,0,0,0,0,0,0,0,0,84,9,0,0,6,0,0,0,3,0,99,8,0,0,2,0,0,0,0,0,98,13,0,0,9,0,0,0,2,0,105,5,0,0,3,0,0,0,0,0,105,15,0,0,10,0,0,0,0,0,0,0,0,0,0,0,0,0,0,0,0,0,0,0,0,0,0,0,0,0,0,0,0,0,0,0,0,0,0,0,0,0,0,0,0,0,0,0,0,0,0,0,0,0,0,0,0,0,0,0,0,0,0,0,0,0,0,0,0,0
P.S. 065 MOTHER HALE ACADEMY,40.807731,-73.912768,BRONX,No,0.957,225.0791,0.12,0.03,0.32,0.64,0.96,0.01,0.89,0.48,0.92,0.88,0.88,0.82,0.84,0.91,2.06,60,1,0,0,1,0,0,0,0,0,61,3,0,0,2,0,0,0,0,0,58,0,0,0,0,0,0,0,0,0,60,2,0,0,0,0,0,0,0,2,45,2,0,0,2,0,0,0,0,0,48,1,0,0,0,0,0,0,0,0,0,0,0,0,0,0,0,0,0,0,0,0,0,0,0,0,0,0,0,0,0,0,0,0,0,0,0,0,0,0,0,0,0,0,0,0,0,0,0,0,0,0,0,0,0,0,0,0,0,0,0,0,0,0,0,0,0,0,0,0
P.S. 154 JONATHAN D. HYATT,40.808255,-73.925748,BRONX,Yes,0.912,189.8433,0.1,0,0.4,0.57,0.97,0.01,0.93,0.25,0.93,0.95,0.92,0.91,0.84,0.96,2.29,62,2,0,0,1,0,0,0,0,0,62,7,0,0,4,0,0,0,0,0,60,1,0,0,1,0,0,0,0,0,60,4,0,0,1,0,0,0,0,0,55,1,0,0,1,0,0,0,0,0,55,4,0,2,2,0,0,0,0,0,0,0,0,0,0,0,0,0,0,0,0,0,0,0,0,0,0,0,0,0,0,0,0,0,0,0,0,0,0,0,0,0,0,0,0,0,0,0,0,0,0,0,0,0,0,0,0,0,0,0,0,0,0,0,0,0,0,0,0,0
P.S. 157 GROVE HILL,40.819262,-73.909065,BRONX,No,0.879,265.0827,0.09,0,0.3,0.69,0.99,0,0.9,0.41,0.92,0.91,0.93,0.8,0.82,0.92,2.32,93,2,0,0,2,0,0,0,0,0,93,3,0,0,3,0,0,0,1,0,87,0,0,0,0,0,0,0,0,0,87,6,0,0,2,0,0,0,0,0,100,2,0,0,2,0,0,0,0,2,103,6,0,3,3,0,0,0,0,6,0,0,0,0,0,0,0,0,0,0,0,0,0,0,0,0,0,0,0,0,0,0,0,0,0,0,0,0,0,0,0,0,0,0,0,0,0,0,0,0,0,0,0,0,0,0,0,0,0,0,0,0,0,0,0,0,0,0,0,0
P.S. 161 JUAN PONCE DE LEON SCHOOL,40.814507,-73.905159,BRONX,No,0.906,251.5314,0.19,0.01,0.23,0.73,0.96,0.02,0.91,0.37,0.9,0.87,0.91,0.71,0.79,0.86,2.33,62,0,0,0,0,0,0,0,0,0,62,0,0,0,0,0,0,0,0,0,59,2,0,0,2,0,0,0,0,0,59,2,0,0,2,0,0,0,0,0,77,2,0,1,1,0,0,0,0,0,78,2,0,0,1,0,0,0,0,0,0,0,0,0,0,0,0,0,0,0,0,0,0,0,0,0,0,0,0,0,0,0,0,0,0,0,0,0,0,0,0,0,0,0,0,0,0,0,0,0,0,0,0,0,0,0,0,0,0,0,0,0,0,0,0,0,0,0,0,0
P.S. 179,40.809216,-73.920032,BRONX,No,0.899,237.3732,0.3,0.01,0.15,0.83,0.98,0,0.92,0.33,0.94,0.92,0.9,0.83,0.85,0.96,2.31,57,0,0,0,0,0,0,0,0,0,57,4,0,0,3,0,0,0,0,4,51,3,0,0,2,0,0,0,0,0,52,4,0,0,4,0,0,0,0,0,46,0,0,0,0,0,0,0,0,0,49,1,0,0,1,0,0,0,0,0,0,0,0,0,0,0,0,0,0,0,0,0,0,0,0,0,0,0,0,0,0,0,0,0,0,0,0,0,0,0,0,0,0,0,0,0,0,0,0,0,0,0,0,0,0,0,0,0,0,0,0,0,0,0,0,0,0,0,0,0
P.S. 277,40.813307,-73.913837,BRONX,No,0.928,226.4964,0.16,0,0.23,0.74,0.97,0.01,0.93,0.22,0.9,0.9,0.89,0.84,0.87,0.93,2.28,67,2,0,0,2,0,0,0,0,0,67,13,0,0,9,0,0,0,0,0,57,5,0,3,2,0,0,0,0,0,57,6,0,2,4,0,0,0,0,0,66,2,0,0,2,0,0,0,0,2,66,5,0,0,5,0,0,0,0,5,0,0,0,0,0,0,0,0,0,0,0,0,0,0,0,0,0,0,0,0,0,0,0,0,0,0,0,0,0,0,0,0,0,0,0,0,0,0,0,0,0,0,0,0,0,0,0,0,0,0,0,0,0,0,0,0,0,0,0,0
YOUNG LEADERS ELEMENTARY SCHOOL,40.809216,-73.920032,BRONX,No,0.923,230.207,0.47,0,0.18,0.81,0.99,0.01,0.92,0.3,0.75,0.86,0.83,0.81,0.88,0.9,1.97,36,0,0,0,0,0,0,0,0,0,37,0,0,0,0,0,0,0,0,0,23,0,0,0,0,0,0,0,0,0,24,0,0,0,0,0,0,0,0,0,35,0,0,0,0,0,0,0,0,0,35,0,0,0,0,0,0,0,0,0,0,0,0,0,0,0,0,0,0,0,0,0,0,0,0,0,0,0,0,0,0,0,0,0,0,0,0,0,0,0,0,0,0,0,0,0,0,0,0,0,0,0,0,0,0,0,0,0,0,0,0,0,0,0,0,0,0,0,0,0
P.S. X014 SENATOR JOHN CALANDRA,40.835535,-73.825861,BRONX,No,0.498,666.1965,0.05,0.04,0.06,0.65,0.71,0.24,0.93,0.22,0.94,0.96,0.98,0.91,0.84,0.97,2.61,88,6,0,0,4,0,2,0,0,0,90,12,0,0,6,0,5,0,0,6,95,10,0,0,6,0,4,0,0,5,96,8,0,0,6,0,2,0,0,4,102,12,0,0,4,0,5,0,0,4,104,9,0,0,5,0,3,0,0,2,0,0,0,0,0,0,0,0,0,0,0,0,0,0,0,0,0,0,0,0,0,0,0,0,0,0,0,0,0,0,0,0,0,0,0,0,0,0,0,0,0,0,0,0,0,0,0,0,0,0,0,0,0,0,0,0,0,0,0,0
P.S. 036 UNIONPORT,40.829446,-73.849749,BRONX,No,0.779,399.3344,0.16,0.19,0.11,0.64,0.76,0.03,0.93,0.24,0.94,0.95,0.96,0.86,0.87,0.96,2.6,115,0,0,0,0,0,0,0,0,0,119,13,1,0,4,7,1,0,3,11,98,4,0,0,0,4,0,0,0,1,103,16,0,0,4,11,0,0,2,4,103,14,0,2,4,3,0,0,0,7,106,20,0,1,11,4,0,0,1,12,0,0,0,0,0,0,0,0,0,0,0,0,0,0,0,0,0,0,0,0,0,0,0,0,0,0,0,0,0,0,0,0,0,0,0,0,0,0,0,0,0,0,0,0,0,0,0,0,0,0,0,0,0,0,0,0,0,0,0,0
P.S. 048 JOSEPH R. DRAKE,40.814228,-73.886889,BRONX,No,0.922,278.5991,0.18,0.01,0.26,0.71,0.97,0.01,0.92,0.31,0.88,0.84,0.86,0.68,0.77,0.84,2.1,103,0,0,0,0,0,0,0,0,0,108,4,0,0,3,0,0,0,0,4,117,3,0,0,3,0,0,0,0,2,122,5,0,0,3,0,0,0,1,5,93,2,0,0,2,0,0,0,0,2,95,3,0,0,3,0,0,0,0,3,0,0,0,0,0,0,0,0,0,0,0,0,0,0,0,0,0,0,0,0,0,0,0,0,0,0,0,0,0,0,0,0,0,0,0,0,0,0,0,0,0,0,0,0,0,0,0,0,0,0,0,0,0,0,0,0,0,0,0,0
P.S. 062 INOCENSIO CASANOVA,40.813875,-73.90019,BRONX,No,0.896,238.3779,0.11,0,0.2,0.77,0.96,0.03,0.91,0.35,0.89,0.94,0.92,0.86,0.85,0.95,2.15,99,3,0,1,2,0,0,0,0,0,106,10,0,0,9,0,0,0,1,0,102,2,0,0,2,0,0,0,0,0,105,10,0,0,9,0,0,0,0,0,109,3,0,0,3,0,0,0,0,0,112,4,0,0,4,0,0,0,0,0,0,0,0,0,0,0,0,0,0,0,0,0,0,0,0,0,0,0,0,0,0,0,0,0,0,0,0,0,0,0,0,0,0,0,0,0,0,0,0,0,0,0,0,0,0,0,0,0,0,0,0,0,0,0,0,0,0,0,0,0
P.S. 069 JOURNEY PREP SCHOOL,40.816837,-73.860541,BRONX,No,0.751,475.9842,0.08,0.02,0.16,0.8,0.96,0.01,0.93,0.22,0.94,0.86,0.92,0.79,0.81,0.88,2.72,79,9,0,0,8,0,0,0,0,9,80,23,0,0,18,0,0,0,0,20,83,10,0,0,10,0,0,0,1,0,82,19,0,0,19,0,0,0,0,0,89,3,0,1,2,0,0,0,0,0,92,11,0,2,7,0,0,0,0,10,0,0,0,0,0,0,0,0,0,0,0,0,0,0,0,0,0,0,0,0,0,0,0,0,0,0,0,0,0,0,0,0,0,0,0,0,0,0,0,0,0,0,0,0,0,0,0,0,0,0,0,0,0,0,0,0,0,0,0,0
P.S. 071 ROSE E. SCALA,40.845595,-73.829638,BRONX,No,0.511,570.7808,0.07,0.07,0.04,0.62,0.66,0.26,0.93,0.22,0.93,0.93,0.86,0.91,0.79,0.93,2.66,180,8,0,1,5,1,1,0,0,2,189,21,0,1,12,3,5,0,1,10,194,23,0,0,10,7,3,0,0,18,202,42,0,0,16,11,13,0,3,31,187,26,0,0,12,6,6,0,0,15,185,23,0,0,9,9,5,0,1,12,181,29,0,0,19,4,6,0,0,19,178,65,0,0,37,13,12,0,0,45,189,20,0,1,12,0,5,0,0,14,180,22,0,0,14,0,1,0,0,18,165,28,0,0,15,0,9,0,0,16,160,34,0,0,17,0,11,0,0,23
P.S. 072 DR. WILLIAM DORNEY,40.823158,-73.818136,BRONX,No,0.761,466.4264,0.05,0.03,0.19,0.72,0.92,0.05,0.91,0.35,0.91,0.87,0.89,0.79,0.83,0.91,2.33,108,3,0,0,2,0,0,0,0,2,110,5,0,0,4,0,0,0,0,4,118,7,0,2,4,1,0,0,0,5,113,13,0,1,8,3,1,0,1,8,128,7,0,0,6,0,0,0,0,6,128,8,0,1,5,0,0,0,0,6,0,0,0,0,0,0,0,0,0,0,0,0,0,0,0,0,0,0,0,0,0,0,0,0,0,0,0,0,0,0,0,0,0,0,0,0,0,0,0,0,0,0,0,0,0,0,0,0,0,0,0,0,0,0,0,0,0,0,0,0
P.S. 75 SCHOOL OF RESEARCH AND DISCOVERY,40.82229,-73.88896,BRONX,No,0.922,239.8716,0.13,0.01,0.26,0.71,0.97,0.01,0.91,0.36,0.93,0.92,0.91,0.83,0.8,0.93,2.24,92,1,0,0,0,0,0,0,0,1,93,10,0,0,7,0,0,0,0,8,89,7,0,0,5,0,0,0,0,6,90,6,0,1,4,0,0,0,0,6,85,2,0,0,2,0,0,0,0,2,87,4,0,0,3,0,0,0,0,3,0,0,0,0,0,0,0,0,0,0,0,0,0,0,0,0,0,0,0,0,0,0,0,0,0,0,0,0,0,0,0,0,0,0,0,0,0,0,0,0,0,0,0,0,0,0,0,0,0,0,0,0,0,0,0,0,0,0,0,0
P.S. 093 ALBERT G. OLIVER,40.822513,-73.877255,BRONX,No,0.667,428.8501,0.09,0,0.57,0.4,0.97,0.02,0.93,0.28,0.96,0.95,0.95,0.87,0.93,0.96,2.26,49,4,0,3,0,0,0,0,0,3,52,3,0,3,0,0,0,0,0,1,41,4,0,4,0,0,0,0,0,3,42,3,0,3,0,0,0,0,0,3,59,0,0,0,0,0,0,0,0,0,60,1,0,1,0,0,0,0,0,0,0,0,0,0,0,0,0,0,0,0,0,0,0,0,0,0,0,0,0,0,0,0,0,0,0,0,0,0,0,0,0,0,0,0,0,0,0,0,0,0,0,0,0,0,0,0,0,0,0,0,0,0,0,0,0,0,0,0,0,0
P.S. 100 ISAAC CLASON,40.82191,-73.862615,BRONX,No,0.86,277.1067,0.05,0.01,0.33,0.64,0.97,0.01,0.92,0.31,0.94,0.95,0.91,0.91,0.82,0.95,2.32,90,0,0,0,0,0,0,0,0,0,91,1,0,0,1,0,0,0,0,1,88,2,0,0,1,0,0,0,0,2,87,2,0,0,2,0,0,0,0,0,99,4,0,1,2,0,0,0,0,4,100,2,0,1,1,0,0,0,0,0,0,0,0,0,0,0,0,0,0,0,0,0,0,0,0,0,0,0,0,0,0,0,0,0,0,0,0,0,0,0,0,0,0,0,0,0,0,0,0,0,0,0,0,0,0,0,0,0,0,0,0,0,0,0,0,0,0,0,0,0
P.S. 107,40.818887,-73.868609,BRONX,No,0.913,278.5377,0.09,0.01,0.32,0.64,0.96,0.03,0.9,0.43,0.95,0.93,0.92,0.84,0.83,0.92,2.21,78,2,0,1,1,0,0,0,1,0,81,6,0,1,5,0,0,0,0,0,82,5,0,0,1,0,0,0,0,0,82,3,0,0,1,0,0,0,0,0,77,1,0,0,1,0,0,0,0,1,79,2,0,0,1,0,0,0,0,2,0,0,0,0,0,0,0,0,0,0,0,0,0,0,0,0,0,0,0,0,0,0,0,0,0,0,0,0,0,0,0,0,0,0,0,0,0,0,0,0,0,0,0,0,0,0,0,0,0,0,0,0,0,0,0,0,0,0,0,0
THE DR. EMMETT W. BASSETT SCHOOL,40.828493,-73.856571,BRONX,No,0.8,394.8531,0.25,0.31,0.09,0.51,0.6,0.07,0.94,0.21,0.84,0.89,0.92,0.83,0.86,0.94,2.41,164,3,0,0,1,2,0,0,0,1,170,16,2,0,3,11,0,0,2,9,150,24,0,1,13,9,0,0,0,15,158,33,0,0,12,19,0,0,0,22,161,16,0,0,4,11,0,0,0,14,171,17,0,0,4,11,0,0,0,12,0,0,0,0,0,0,0,0,0,0,0,0,0,0,0,0,0,0,0,0,0,0,0,0,0,0,0,0,0,0,0,0,0,0,0,0,0,0,0,0,0,0,0,0,0,0,0,0,0,0,0,0,0,0,0,0,0,0,0,0
P.S. 130 ABRAM STEVENS HEWITT,40.817778,-73.901831,BRONX,No,0.872,249.7729,0.23,0.02,0.23,0.73,0.96,0.02,0.92,0.27,0.95,0.92,0.93,0.85,0.86,0.95,2.07,81,0,0,0,0,0,0,0,0,0,82,5,0,0,3,0,0,0,0,4,77,3,0,0,3,0,0,0,0,2,78,5,0,0,4,0,0,0,1,3,70,1,0,0,0,0,0,0,0,0,71,0,0,0,0,0,0,0,0,0,0,0,0,0,0,0,0,0,0,0,0,0,0,0,0,0,0,0,0,0,0,0,0,0,0,0,0,0,0,0,0,0,0,0,0,0,0,0,0,0,0,0,0,0,0,0,0,0,0,0,0,0,0,0,0,0,0,0,0,0
P.S. 138 SAMUEL RANDALL,40.822374,-73.852831,BRONX,No,0.851,356.3581,0.04,0.02,0.26,0.7,0.95,0.01,0.89,0.42,0.94,0.97,0.92,0.86,0.81,0.95,2.32,132,0,0,0,0,0,0,0,0,0,132,9,0,0,3,0,0,0,0,6,143,12,0,1,10,0,0,0,0,10,143,11,0,1,10,0,0,0,0,10,101,2,0,0,1,0,0,0,0,2,99,5,0,0,5,0,0,0,0,5,0,0,0,0,0,0,0,0,0,0,0,0,0,0,0,0,0,0,0,0,0,0,0,0,0,0,0,0,0,0,0,0,0,0,0,0,0,0,0,0,0,0,0,0,0,0,0,0,0,0,0,0,0,0,0,0,0,0,0,0
P.S. X140 THE EAGLE SCHOOL,40.823374,-73.907378,BRONX,No,0.875,267.6323,0.11,0,0.35,0.61,0.96,0.02,0.9,0.4,0.88,0.82,0.87,0.76,0.84,0.88,2.16,85,0,0,0,0,0,0,0,0,0,83,3,0,0,3,0,0,0,0,3,94,5,0,2,3,0,0,0,0,4,95,4,0,1,3,0,0,0,1,3,100,2,0,0,1,0,0,0,0,2,100,0,0,0,0,0,0,0,0,0,0,0,0,0,0,0,0,0,0,0,0,0,0,0,0,0,0,0,0,0,0,0,0,0,0,0,0,0,0,0,0,0,0,0,0,0,0,0,0,0,0,0,0,0,0,0,0,0,0,0,0,0,0,0,0,0,0,0,0,0
P.S. 146 EDWARD COLLINS,40.825125,-73.90592,BRONX,No,0.911,252.0354,0.13,0.01,0.42,0.55,0.97,0,0.91,0.36,0.95,0.9,0.92,0.82,0.83,0.89,2.25,39,1,0,1,0,0,0,0,0,1,42,4,0,2,2,0,0,0,0,4,43,0,0,0,0,0,0,0,0,0,45,2,0,0,1,0,0,0,0,2,41,2,0,0,2,0,0,0,0,0,42,2,0,0,1,0,0,0,0,0,0,0,0,0,0,0,0,0,0,0,0,0,0,0,0,0,0,0,0,0,0,0,0,0,0,0,0,0,0,0,0,0,0,0,0,0,0,0,0,0,0,0,0,0,0,0,0,0,0,0,0,0,0,0,0,0,0,0,0,0
P.S. 152 EVERGREEN,40.823978,-73.880504,BRONX,No,0.913,282.5604,0.26,0.01,0.18,0.78,0.96,0.01,0.91,0.35,0.8,0.83,0.89,0.73,0.83,0.85,2.19,124,0,0,0,0,0,0,0,0,0,127,10,0,1,6,0,0,0,1,7,142,3,0,0,2,0,0,0,0,2,143,6,0,0,6,0,0,0,0,5,133,11,0,2,8,0,0,0,0,7,137,6,0,2,4,0,0,0,0,3,0,0,0,0,0,0,0,0,0,0,0,0,0,0,0,0,0,0,0,0,0,0,0,0,0,0,0,0,0,0,0,0,0,0,0,0,0,0,0,0,0,0,0,0,0,0,0,0,0,0,0,0,0,0,0,0,0,0,0,0
P.S. 182,40.818892,-73.856982,BRONX,No,0.73,459.2494,0.04,0.08,0.28,0.62,0.9,0.02,0.92,0.32,0.85,0.75,0.82,0.59,0.8,0.82,2.59,167,10,0,1,4,0,0,0,0,8,169,24,0,3,10,0,0,0,0,19,150,32,0,12,8,9,0,0,0,24,153,42,0,13,12,14,0,0,0,31,158,7,0,1,3,0,0,0,0,7,159,16,0,2,7,0,0,0,0,16,0,0,0,0,0,0,0,0,0,0,0,0,0,0,0,0,0,0,0,0,0,0,0,0,0,0,0,0,0,0,0,0,0,0,0,0,0,0,0,0,0,0,0,0,0,0,0,0,0,0,0,0,0,0,0,0,0,0,0,0
P.S. 304 EARLY CHILDHOOD SCHOOL,40.827214,-73.829212,BRONX,No,0.388,670.9868,0.01,0.07,0.05,0.59,0.64,0.27,0.95,0.13,0.9,0.94,0.96,0.86,0.9,0.98,2.94,90,15,0,0,9,2,4,0,0,8,91,18,0,0,11,3,3,0,0,11,74,25,0,0,14,0,8,0,0,20,74,21,0,0,12,0,6,0,0,15,83,22,0,2,6,0,12,0,0,12,83,22,0,1,7,0,13,0,0,13,0,0,0,0,0,0,0,0,0,0,0,0,0,0,0,0,0,0,0,0,0,0,0,0,0,0,0,0,0,0,0,0,0,0,0,0,0,0,0,0,0,0,0,0,0,0,0,0,0,0,0,0,0,0,0,0,0,0,0,0
P.S. 333 - THE MUSEUM SCHOOL,40.820082,-73.898647,BRONX,No,0.915,264.4884,0.24,0,0.2,0.77,0.97,0.02,0.89,0.46,0.89,0.8,0.91,0.62,0.78,0.85,2.22,46,0,0,0,0,0,0,0,0,0,47,0,0,0,0,0,0,0,0,0,58,1,0,0,1,0,0,0,0,1,59,1,0,0,0,0,0,0,0,1,61,0,0,0,0,0,0,0,0,0,61,0,0,0,0,0,0,0,0,0,0,0,0,0,0,0,0,0,0,0,0,0,0,0,0,0,0,0,0,0,0,0,0,0,0,0,0,0,0,0,0,0,0,0,0,0,0,0,0,0,0,0,0,0,0,0,0,0,0,0,0,0,0,0,0,0,0,0,0,0
THE ACADEMY OF THE ARTS,40.820082,-73.898647,BRONX,No,0.891,258.7653,0.18,0.01,0.3,0.67,0.96,0.01,0.92,0.34,0.95,0.96,0.97,0.95,0.86,0.98,2.27,28,1,0,0,1,0,0,0,0,1,28,5,0,0,4,0,0,0,0,5,43,0,0,0,0,0,0,0,0,0,45,2,0,0,1,0,0,0,0,0,37,1,0,0,0,0,0,0,0,0,38,1,0,0,1,0,0,0,0,0,0,0,0,0,0,0,0,0,0,0,0,0,0,0,0,0,0,0,0,0,0,0,0,0,0,0,0,0,0,0,0,0,0,0,0,0,0,0,0,0,0,0,0,0,0,0,0,0,0,0,0,0,0,0,0,0,0,0,0,0
P.S./M.S. 004 CROTONA PARK WEST,40.841242,-73.898492,BRONX,No,0.903,288.3061,0.12,0.01,0.53,0.45,0.98,0.01,0.88,0.44,0.85,0.77,0.89,0.68,0.8,0.86,2.28,69,1,0,1,0,0,0,0,0,0,70,10,0,4,0,0,0,0,1,0,55,3,0,0,1,0,0,0,0,0,56,6,0,0,3,0,0,0,1,0,61,0,0,0,0,0,0,0,0,0,60,0,0,0,0,0,0,0,0,0,51,1,0,1,0,0,0,0,0,0,53,5,0,3,2,0,0,0,0,0,41,3,0,2,1,0,0,0,0,0,43,11,0,7,4,0,0,0,1,0,54,5,0,2,0,0,0,0,0,0,56,1,0,0,0,0,0,0,0,0
P.S. 011 HIGHBRIDGE,40.83973,-73.925913,BRONX,No,0.923,264.7548,0.25,0,0.3,0.69,0.99,0,0.92,0.33,0.95,0.94,0.92,0.83,0.84,0.93,2.31,110,1,0,0,1,0,0,0,0,0,110,8,0,0,8,0,0,0,6,0,109,7,0,0,4,0,0,0,0,0,111,7,0,0,5,0,0,0,0,0,121,4,0,0,4,0,0,0,0,0,123,6,0,0,6,0,0,0,2,0,0,0,0,0,0,0,0,0,0,0,0,0,0,0,0,0,0,0,0,0,0,0,0,0,0,0,0,0,0,0,0,0,0,0,0,0,0,0,0,0,0,0,0,0,0,0,0,0,0,0,0,0,0,0,0,0,0,0,0,0
P.S. 028 MOUNT HOPE,40.848338,-73.903702,BRONX,No,0.922,255.3254,0.32,0.01,0.18,0.81,0.98,0.01,0.91,0.33,0.9,0.8,0.89,0.5,0.93,0.62,2.28,98,2,0,0,2,0,0,0,0,0,98,14,0,0,10,0,0,0,0,0,119,10,0,0,7,0,0,0,0,10,122,17,0,0,12,0,0,0,1,17,100,8,0,0,8,0,0,0,0,8,107,7,0,0,7,0,0,0,0,7,0,0,0,0,0,0,0,0,0,0,0,0,0,0,0,0,0,0,0,0,0,0,0,0,0,0,0,0,0,0,0,0,0,0,0,0,0,0,0,0,0,0,0,0,0,0,0,0,0,0,0,0,0,0,0,0,0,0,0,0
P.S. 035 FRANZ SIEGEL,40.82761,-73.91809,BRONX,No,0.834,277.6612,0.25,0.01,0.29,0.68,0.97,0.01,0.93,0.23,0.89,0.87,0.86,0.76,0.81,0.92,2.28,119,3,0,0,0,0,0,0,0,3,126,5,0,4,1,0,0,0,0,5,114,5,0,0,3,0,0,0,0,0,118,7,0,0,6,0,0,0,0,0,107,3,0,0,1,0,0,0,0,2,111,7,0,0,4,0,0,0,0,5,0,0,0,0,0,0,0,0,0,0,0,0,0,0,0,0,0,0,0,0,0,0,0,0,0,0,0,0,0,0,0,0,0,0,0,0,0,0,0,0,0,0,0,0,0,0,0,0,0,0,0,0,0,0,0,0,0,0,0,0
P.S. 042 CLAREMONT,40.838559,-73.903026,BRONX,Yes,0.935,242.4923,0.16,0,0.41,0.56,0.97,0.02,0.9,0.37,0.88,0.91,0.86,0.88,0.9,0.93,2.18,70,1,0,0,0,0,0,0,0,0,74,1,0,0,1,0,0,0,0,0,64,5,0,0,3,0,0,0,0,0,65,5,0,0,3,0,0,0,0,0,62,0,0,0,0,0,0,0,0,0,66,4,0,0,2,0,0,0,0,4,0,0,0,0,0,0,0,0,0,0,0,0,0,0,0,0,0,0,0,0,0,0,0,0,0,0,0,0,0,0,0,0,0,0,0,0,0,0,0,0,0,0,0,0,0,0,0,0,0,0,0,0,0,0,0,0,0,0,0,0
P.S. 053 BASHEER QUISIM,40.832774,-73.911831,BRONX,No,0.919,239.9498,0.25,0.01,0.33,0.64,0.97,0.02,0.9,0.42,0.91,0.88,0.92,0.81,0.8,0.88,2.42,186,7,0,3,4,0,0,0,0,5,192,31,0,10,21,0,0,0,2,24,177,24,0,10,13,0,0,0,0,18,183,37,0,12,24,0,0,0,3,33,189,24,0,11,12,0,0,0,1,20,198,10,0,4,6,0,0,0,3,8,0,0,0,0,0,0,0,0,0,0,0,0,0,0,0,0,0,0,0,0,0,0,0,0,0,0,0,0,0,0,0,0,0,0,0,0,0,0,0,0,0,0,0,0,0,0,0,0,0,0,0,0,0,0,0,0,0,0,0,0
P.S. 055 BENJAMIN FRANKLIN,40.835973,-73.904838,BRONX,Yes,0.939,194.4565,0.11,0,0.47,0.52,0.99,0,0.92,0.28,0.86,0.78,0.83,0.74,0.81,0.9,2.04,105,1,0,1,0,0,0,0,0,1,105,4,0,3,0,0,0,0,0,4,119,1,0,1,0,0,0,0,0,1,117,0,0,0,0,0,0,0,0,0,102,1,0,0,1,0,0,0,0,1,104,0,0,0,0,0,0,0,0,0,0,0,0,0,0,0,0,0,0,0,0,0,0,0,0,0,0,0,0,0,0,0,0,0,0,0,0,0,0,0,0,0,0,0,0,0,0,0,0,0,0,0,0,0,0,0,0,0,0,0,0,0,0,0,0,0,0,0,0,0
P.S. 058,40.846275,-73.898878,BRONX,No,0.91,254.162,0.2,0,0.26,0.71,0.97,0.01,0.9,0.43,0.87,0.79,0.86,0.69,0.79,0.8,2.17,81,0,0,0,0,0,0,0,0,0,89,5,0,0,5,0,0,0,0,4,65,1,0,0,1,0,0,0,0,1,69,1,0,0,1,0,0,0,0,1,57,0,0,0,0,0,0,0,0,0,59,3,0,0,3,0,0,0,1,3,0,0,0,0,0,0,0,0,0,0,0,0,0,0,0,0,0,0,0,0,0,0,0,0,0,0,0,0,0,0,0,0,0,0,0,0,0,0,0,0,0,0,0,0,0,0,0,0,0,0,0,0,0,0,0,0,0,0,0,0
P.S. 063 AUTHOR'S ACADEMY,40.830895,-73.902386,BRONX,No,0.89,257.7281,0.19,0,0.36,0.61,0.97,0.03,0.9,0.39,0.96,0.94,0.94,0.88,0.86,0.95,2.55,107,2,0,0,1,0,0,0,1,0,113,10,0,0,9,0,0,0,0,0,73,13,0,0,7,0,0,0,0,0,74,22,0,0,13,0,0,0,0,0,81,6,0,0,6,0,0,0,0,0,92,3,0,0,3,0,0,0,0,3,0,0,0,0,0,0,0,0,0,0,0,0,0,0,0,0,0,0,0,0,0,0,0,0,0,0,0,0,0,0,0,0,0,0,0,0,0,0,0,0,0,0,0,0,0,0,0,0,0,0,0,0,0,0,0,0,0,0,0,0
P.S. 070 MAX SCHOENFELD,40.844394,-73.908023,BRONX,No,0.916,281.9058,0.25,0.01,0.25,0.74,0.98,0.01,0.91,0.37,0.88,0.87,0.84,0.82,0.82,0.9,2.1,208,1,0,0,1,0,0,0,0,0,217,15,0,0,14,0,0,0,0,0,225,10,0,2,6,0,0,0,0,0,232,10,0,0,9,0,0,0,3,0,215,3,0,1,2,0,0,0,0,0,222,4,0,2,2,0,0,0,1,0,0,0,0,0,0,0,0,0,0,0,0,0,0,0,0,0,0,0,0,0,0,0,0,0,0,0,0,0,0,0,0,0,0,0,0,0,0,0,0,0,0,0,0,0,0,0,0,0,0,0,0,0,0,0,0,0,0,0,0,0
P.S. 073 BRONX,40.83262,-73.926485,BRONX,No,0.891,225.8013,0.22,0,0.25,0.74,0.99,0.01,0.9,0.41,0.85,0.82,0.82,0.68,0.83,0.83,2.07,125,0,0,0,0,0,0,0,0,0,123,1,0,0,1,0,0,0,1,1,105,0,0,0,0,0,0,0,0,0,110,1,0,0,0,0,0,0,0,1,111,3,0,0,2,0,0,0,0,3,112,5,0,0,4,0,0,0,0,5,0,0,0,0,0,0,0,0,0,0,0,0,0,0,0,0,0,0,0,0,0,0,0,0,0,0,0,0,0,0,0,0,0,0,0,0,0,0,0,0,0,0,0,0,0,0,0,0,0,0,0,0,0,0,0,0,0,0,0,0
P.S. 109 SEDGWICK,40.851637,-73.918772,BRONX,No,0.874,263.9705,0.25,0,0.2,0.8,0.99,0.01,0.91,0.32,0.79,0.69,0.73,0.57,0.79,0.77,2.19,115,4,0,0,3,0,0,0,0,0,117,5,0,0,5,0,0,0,1,0,115,6,0,0,4,0,0,0,0,0,113,4,0,0,2,0,0,0,0,3,121,1,0,0,1,0,0,0,0,1,123,1,0,0,0,0,0,0,0,0,0,0,0,0,0,0,0,0,0,0,0,0,0,0,0,0,0,0,0,0,0,0,0,0,0,0,0,0,0,0,0,0,0,0,0,0,0,0,0,0,0,0,0,0,0,0,0,0,0,0,0,0,0,0,0,0,0,0,0,0
P.S. 110 THEODORE SCHOENFELD,40.834973,-73.900304,BRONX,No,0.91,216.8993,0.12,0,0.42,0.52,0.95,0.05,0.93,0.25,0.83,0.83,0.82,0.68,0.82,0.86,2.33,55,2,0,0,2,0,0,0,0,0,58,6,0,0,0,0,0,0,0,0,64,4,0,0,3,0,0,0,0,4,66,5,0,0,3,0,0,0,0,5,69,0,0,0,0,0,0,0,0,0,72,3,0,0,2,0,0,0,0,0,0,0,0,0,0,0,0,0,0,0,0,0,0,0,0,0,0,0,0,0,0,0,0,0,0,0,0,0,0,0,0,0,0,0,0,0,0,0,0,0,0,0,0,0,0,0,0,0,0,0,0,0,0,0,0,0,0,0,0,0
P.S. X114 - LUIS LLORENS TORRES SCHOOLS,40.835007,-73.923347,BRONX,No,0.904,268.2306,0.33,0.04,0.22,0.71,0.93,0.02,0.92,0.31,0.95,0.93,0.95,0.86,0.83,0.93,2.07,125,0,0,0,0,0,0,0,0,0,130,9,0,6,2,0,0,0,0,0,132,6,0,0,5,0,0,0,0,0,142,1,0,0,0,0,0,0,0,0,129,5,0,1,3,0,0,0,0,0,136,7,0,2,4,0,0,0,0,0,0,0,0,0,0,0,0,0,0,0,0,0,0,0,0,0,0,0,0,0,0,0,0,0,0,0,0,0,0,0,0,0,0,0,0,0,0,0,0,0,0,0,0,0,0,0,0,0,0,0,0,0,0,0,0,0,0,0,0,0
P.S. 126 DR MARJORIE H DUNBAR,40.836201,-73.928346,BRONX,No,0.91,227.0133,0.22,0.01,0.26,0.71,0.97,0.02,0.91,0.36,0.89,0.79,0.85,0.7,0.79,0.79,2.27,87,2,0,1,1,0,0,0,0,0,89,4,0,1,3,0,0,0,1,0,96,3,0,0,3,0,0,0,0,0,99,5,0,0,4,0,0,0,0,0,100,8,0,0,3,0,0,0,0,8,104,0,0,0,0,0,0,0,0,0,0,0,0,0,0,0,0,0,0,0,0,0,0,0,0,0,0,0,0,0,0,0,0,0,0,0,0,0,0,0,0,0,0,0,0,0,0,0,0,0,0,0,0,0,0,0,0,0,0,0,0,0,0,0,0,0,0,0,0,0
P.S. 132 GARRET A. MORGAN,40.832081,-73.906951,BRONX,No,0.928,227.0297,0.13,0,0.44,0.54,0.98,0,0.89,0.44,0.95,0.76,0.71,0.6,0.75,0.74,2.07,73,0,0,0,0,0,0,0,0,0,74,0,0,0,0,0,0,0,0,0,71,2,0,0,2,0,0,0,0,2,72,1,0,0,1,0,0,0,0,1,59,0,0,0,0,0,0,0,0,0,60,0,0,0,0,0,0,0,0,0,0,0,0,0,0,0,0,0,0,0,0,0,0,0,0,0,0,0,0,0,0,0,0,0,0,0,0,0,0,0,0,0,0,0,0,0,0,0,0,0,0,0,0,0,0,0,0,0,0,0,0,0,0,0,0,0,0,0,0,0
P.S. 163 ARTHUR A. SCHOMBURG,40.851773,-73.898794,BRONX,No,0.928,255.3474,0.32,0.01,0.37,0.6,0.97,0.01,0.93,0.26,0.77,0.55,0.69,0.48,0.78,0.67,2.3,75,0,0,0,0,0,0,0,0,0,81,2,0,0,1,0,0,0,0,2,86,5,0,0,2,0,0,0,0,0,91,1,0,0,0,0,0,0,0,0,86,9,0,0,7,0,0,0,0,0,89,8,0,3,4,0,0,0,0,0,0,0,0,0,0,0,0,0,0,0,0,0,0,0,0,0,0,0,0,0,0,0,0,0,0,0,0,0,0,0,0,0,0,0,0,0,0,0,0,0,0,0,0,0,0,0,0,0,0,0,0,0,0,0,0,0,0,0,0,0
P.S. 199X - THE SHAKESPEARE SCHOOL,40.843553,-73.920665,BRONX,No,0.901,266.3437,0.29,0,0.3,0.67,0.97,0.01,0.91,0.34,0.87,0.79,0.87,0.69,0.82,0.82,2.21,125,1,0,0,1,0,0,0,0,0,124,8,0,1,7,0,0,0,0,0,123,6,0,0,4,0,0,0,0,6,127,9,0,0,6,0,0,0,0,8,122,2,0,0,0,0,0,0,0,0,126,5,0,0,2,0,0,0,0,0,0,0,0,0,0,0,0,0,0,0,0,0,0,0,0,0,0,0,0,0,0,0,0,0,0,0,0,0,0,0,0,0,0,0,0,0,0,0,0,0,0,0,0,0,0,0,0,0,0,0,0,0,0,0,0,0,0,0,0,0
P.S. 204 MORRIS HEIGHTS,40.849995,-73.915226,BRONX,No,0.865,218.7,0.1,0.01,0.29,0.67,0.96,0.02,0.94,0.18,0.89,0.95,0.92,0.89,0.87,0.98,2.46,123,14,0,4,8,0,0,0,0,7,123,30,0,10,16,0,0,0,0,16,72,11,0,0,9,0,0,0,0,6,74,10,0,0,8,0,0,0,0,7,87,7,0,0,4,0,0,0,0,5,91,14,0,0,9,0,0,0,1,10,0,0,0,0,0,0,0,0,0,0,0,0,0,0,0,0,0,0,0,0,0,0,0,0,0,0,0,0,0,0,0,0,0,0,0,0,0,0,0,0,0,0,0,0,0,0,0,0,0,0,0,0,0,0,0,0,0,0,0,0
P.S./I.S. 218 RAFAEL HERNANDEZ DUAL LANGUAGE MAGNET SCHOOL,40.835694,-73.919663,BRONX,No,0.861,259.1964,0.31,0.04,0.05,0.89,0.94,0.01,0.94,0.18,0.89,0.84,0.89,0.76,0.82,0.88,2.45,112,2,0,0,2,0,0,0,0,1,112,9,0,1,8,0,0,0,1,6,113,6,0,0,3,2,0,0,0,6,113,10,0,0,7,2,0,0,0,10,106,4,0,0,4,0,0,0,0,1,107,7,0,0,6,0,0,0,0,2,94,8,0,0,7,0,0,0,0,6,94,6,0,0,5,0,0,0,0,4,86,2,0,0,1,0,0,0,0,2,86,6,0,0,4,0,0,0,0,6,88,7,0,0,6,0,0,0,0,4,57,1,0,0,1,0,0,0,0,0
P.S. 236 LANGSTON HUGHES,40.848826,-73.909699,BRONX,No,0.882,269.5839,0.12,0,0.29,0.68,0.98,0.02,0.93,0.2,0.93,0.93,0.92,0.85,0.87,0.93,2.19,23,0,0,0,0,0,0,0,0,0,23,1,0,0,0,0,0,0,0,0,73,6,0,2,4,0,0,0,0,6,73,8,0,1,7,0,0,0,0,8,60,2,0,0,1,0,0,0,0,0,59,0,0,0,0,0,0,0,0,0,0,0,0,0,0,0,0,0,0,0,0,0,0,0,0,0,0,0,0,0,0,0,0,0,0,0,0,0,0,0,0,0,0,0,0,0,0,0,0,0,0,0,0,0,0,0,0,0,0,0,0,0,0,0,0,0,0,0,0,0
THE FAMILY SCHOOL,40.832033,-73.917519,BRONX,No,0.898,279.703,0.32,0.04,0.28,0.66,0.94,0.01,0.92,0.31,0.95,0.93,0.9,0.82,0.83,0.94,2.24,82,0,0,0,0,0,0,0,0,0,85,2,0,0,2,0,0,0,0,2,70,2,0,0,1,0,0,0,0,0,75,10,0,1,6,0,0,0,1,0,78,1,0,0,1,0,0,0,0,1,82,3,0,0,2,0,0,0,0,3,0,0,0,0,0,0,0,0,0,0,0,0,0,0,0,0,0,0,0,0,0,0,0,0,0,0,0,0,0,0,0,0,0,0,0,0,0,0,0,0,0,0,0,0,0,0,0,0,0,0,0,0,0,0,0,0,0,0,0,0
GRANT AVENUE ELEMENTARY SCHOOL,40.828111,-73.917661,BRONX,No,0.876,263.7044,0.22,0.05,0.3,0.62,0.92,0.01,0.93,0.24,0.93,0.9,0.88,0.89,0.9,0.94,2.1,64,1,0,0,1,0,0,0,0,0,69,4,0,0,3,0,0,0,0,0,62,3,0,1,1,0,0,0,0,0,63,3,0,1,1,0,0,0,0,0,60,2,0,0,1,0,0,0,0,0,62,1,0,0,1,0,0,0,0,0,0,0,0,0,0,0,0,0,0,0,0,0,0,0,0,0,0,0,0,0,0,0,0,0,0,0,0,0,0,0,0,0,0,0,0,0,0,0,0,0,0,0,0,0,0,0,0,0,0,0,0,0,0,0,0,0,0,0,0,0
SHERIDAN ACADEMY FOR YOUNG LEADERS,40.832033,-73.917519,BRONX,No,0.909,303.0035,0.19,0.01,0.3,0.67,0.97,0.01,0.91,0.38,0.9,0.92,0.84,0.81,0.87,0.92,2.14,102,0,0,0,0,0,0,0,0,0,103,9,0,0,6,0,0,0,0,9,91,2,0,0,2,0,0,0,0,2,93,9,0,3,6,0,0,0,0,9,89,3,0,1,2,0,0,0,0,3,89,3,0,0,2,0,0,0,0,3,0,0,0,0,0,0,0,0,0,0,0,0,0,0,0,0,0,0,0,0,0,0,0,0,0,0,0,0,0,0,0,0,0,0,0,0,0,0,0,0,0,0,0,0,0,0,0,0,0,0,0,0,0,0,0,0,0,0,0,0
P.S. 3 RAUL JULIA MICRO SOCIETY,40.850163,-73.891656,BRONX,No,0.864,255.4448,0.1,0.02,0.29,0.68,0.97,0,0.91,0.37,0.97,0.9,0.87,0.83,0.83,0.91,2.35,30,1,0,0,0,0,0,0,0,0,30,4,0,0,2,0,0,0,0,0,25,1,0,0,1,0,0,0,0,0,25,4,0,2,2,0,0,0,0,0,20,2,0,1,1,0,0,0,0,2,20,1,0,1,0,0,0,0,0,1,36,3,0,0,0,0,0,0,0,0,36,3,0,0,1,0,0,0,0,0,24,0,0,0,0,0,0,0,0,0,24,1,0,0,1,0,0,0,0,0,40,3,0,0,2,0,0,0,0,0,40,1,0,0,0,0,0,0,0,0
MILTON FEIN SCHOOL,40.881668,-73.905862,BRONX,No,0.746,412.2311,0.2,0.05,0.06,0.79,0.85,0.09,0.96,0.05,0.97,0.97,0.98,0.92,0.88,0.99,2.63,160,24,0,3,14,0,3,0,0,16,162,51,0,6,35,0,5,0,1,38,153,49,0,8,25,0,7,0,0,37,158,57,0,9,32,0,8,0,1,43,150,27,0,7,13,0,3,0,0,21,156,33,0,6,13,0,6,0,2,26,0,0,0,0,0,0,0,0,0,0,0,0,0,0,0,0,0,0,0,0,0,0,0,0,0,0,0,0,0,0,0,0,0,0,0,0,0,0,0,0,0,0,0,0,0,0,0,0,0,0,0,0,0,0,0,0,0,0,0,0
P.S. 008 ISAAC VARIAN,40.872553,-73.883365,BRONX,No,0.8,336.0134,0.25,0.05,0.11,0.77,0.88,0.07,0.93,0.29,0.89,0.9,0.93,0.8,0.79,0.92,2.43,173,4,0,1,2,0,0,0,0,3,177,20,0,1,15,0,2,0,1,18,195,13,0,0,10,0,1,0,0,12,196,23,0,2,13,4,0,0,2,23,132,7,0,0,4,2,1,0,0,7,134,12,0,1,6,2,3,0,0,10,0,0,0,0,0,0,0,0,0,0,0,0,0,0,0,0,0,0,0,0,0,0,0,0,0,0,0,0,0,0,0,0,0,0,0,0,0,0,0,0,0,0,0,0,0,0,0,0,0,0,0,0,0,0,0,0,0,0,0,0
P.S. 9 RYER AVENUE ELEMENTARY SCHOOL,40.856803,-73.898907,BRONX,No,0.923,265.168,0.27,0.01,0.16,0.8,0.96,0.01,0.9,0.4,0.91,0.87,0.88,0.71,0.83,0.88,2.16,133,5,0,3,2,0,0,0,0,4,132,13,0,3,9,0,0,0,0,11,134,8,0,0,7,0,0,0,0,7,136,11,0,0,7,0,0,0,0,10,118,3,0,0,3,0,0,0,0,3,120,4,0,2,2,0,0,0,2,2,0,0,0,0,0,0,0,0,0,0,0,0,0,0,0,0,0,0,0,0,0,0,0,0,0,0,0,0,0,0,0,0,0,0,0,0,0,0,0,0,0,0,0,0,0,0,0,0,0,0,0,0,0,0,0,0,0,0,0,0
P.S. X015 INSTITUTE FOR ENVIRONMENTAL LEARNING,40.859165,-73.909733,BRONX,No,0.852,287.7966,0.07,0.01,0.13,0.85,0.98,0,0.95,0.16,0.86,0.86,0.85,0.79,0.84,0.91,2.57,54,1,0,0,1,0,0,0,0,1,54,7,0,0,6,0,0,0,0,5,53,7,0,0,7,0,0,0,0,3,53,11,0,2,9,0,0,0,0,5,48,5,0,1,4,0,0,0,0,4,48,12,0,1,11,0,0,0,0,6,62,5,0,0,4,0,0,0,0,2,62,12,0,0,10,0,0,0,0,6,62,9,0,0,9,0,0,0,0,5,62,5,0,0,5,0,0,0,0,2,52,8,0,1,7,0,0,0,0,5,52,15,0,2,13,0,0,0,0,10
"P.S./M.S. 20 P.O.GEORGE J. WERDANN, III",40.869618,-73.879012,BRONX,No,0.806,341.556,0.19,0.09,0.08,0.73,0.82,0.08,0.92,0.29,0.88,0.82,0.84,0.69,0.75,0.85,2.32,128,0,0,0,0,0,0,0,0,0,129,6,2,0,2,2,0,0,0,6,121,4,0,0,3,1,0,0,0,0,127,1,0,0,1,0,0,0,0,0,137,11,0,0,8,1,1,0,0,9,142,1,0,0,0,1,0,0,0,1,120,7,0,0,4,3,0,0,0,6,122,6,0,0,2,3,0,0,0,6,80,5,0,0,1,0,1,0,0,0,79,2,0,0,0,0,2,0,0,0,87,4,0,0,3,0,1,0,0,0,85,5,0,0,2,0,0,0,0,0
P.S. 023 THE NEW CHILDREN'S SCHOOL,40.85336,-73.894798,BRONX,No,0.905,249.6663,0.13,0,0.37,0.62,0.99,0.01,0.91,0.34,0.79,0.89,0.82,0.78,0.81,0.91,2.13,83,1,0,1,0,0,0,0,0,1,85,7,0,2,5,0,0,0,0,7,71,1,0,0,1,0,0,0,0,1,73,4,0,2,2,0,0,0,0,4,87,2,0,0,0,0,0,0,0,2,87,0,0,0,0,0,0,0,0,0,0,0,0,0,0,0,0,0,0,0,0,0,0,0,0,0,0,0,0,0,0,0,0,0,0,0,0,0,0,0,0,0,0,0,0,0,0,0,0,0,0,0,0,0,0,0,0,0,0,0,0,0,0,0,0,0,0,0,0,0
P.S. 024 SPUYTEN DUYVIL,40.887662,-73.91357,BRONX,No,0.227,813.2051,0.03,0.09,0.06,0.42,0.48,0.39,0.94,0.13,0.82,0.71,0.86,0.57,0.85,0.77,2.87,156,30,0,0,7,7,15,1,0,2,156,55,0,0,16,9,28,2,0,7,157,36,0,0,11,3,18,0,0,6,155,47,0,0,13,5,23,0,0,4,122,29,0,0,3,5,18,0,0,6,122,39,0,0,7,10,20,0,0,11,0,0,0,0,0,0,0,0,0,0,0,0,0,0,0,0,0,0,0,0,0,0,0,0,0,0,0,0,0,0,0,0,0,0,0,0,0,0,0,0,0,0,0,0,0,0,0,0,0,0,0,0,0,0,0,0,0,0,0,0
P.S. 032 BELMONT,40.852095,-73.885739,BRONX,No,0.925,227.3712,0.13,0.01,0.25,0.71,0.96,0.03,0.93,0.28,0.97,0.96,0.96,0.89,0.84,0.97,2.31,135,6,0,0,4,0,0,0,0,0,137,9,0,2,6,0,0,0,1,0,124,10,0,0,9,0,0,0,2,10,127,10,0,0,7,0,0,0,1,10,126,3,0,1,2,0,0,0,0,0,129,5,0,1,4,0,0,0,1,0,0,0,0,0,0,0,0,0,0,0,0,0,0,0,0,0,0,0,0,0,0,0,0,0,0,0,0,0,0,0,0,0,0,0,0,0,0,0,0,0,0,0,0,0,0,0,0,0,0,0,0,0,0,0,0,0,0,0,0,0
P.S. 033 TIMOTHY DWIGHT,40.861675,-73.901633,BRONX,No,0.91,276.3311,0.26,0.02,0.1,0.84,0.94,0.02,0.92,0.31,0.88,0.89,0.91,0.78,0.91,0.92,2.15,156,4,0,0,3,0,0,0,0,3,163,23,0,0,21,0,0,0,1,19,125,4,0,2,1,0,0,0,0,3,136,4,0,1,3,0,0,0,0,3,164,0,0,0,0,0,0,0,0,0,165,2,0,0,1,1,0,0,1,1,0,0,0,0,0,0,0,0,0,0,0,0,0,0,0,0,0,0,0,0,0,0,0,0,0,0,0,0,0,0,0,0,0,0,0,0,0,0,0,0,0,0,0,0,0,0,0,0,0,0,0,0,0,0,0,0,0,0,0,0
P.S. X037 - MULTIPLE INTELLIGENCE SCHOOL,40.87984,-73.910788,BRONX,No,0.752,690.6416,0.15,0.02,0.23,0.72,0.95,0.02,0.92,0.33,0.93,0.92,0.85,0.86,0.88,0.92,2.37,89,2,0,0,2,0,0,0,0,0,91,10,0,0,10,0,0,0,1,6,72,4,0,0,2,0,0,0,0,2,74,7,0,0,4,0,0,0,0,4,74,7,0,0,6,0,0,0,0,6,74,7,0,0,6,0,0,0,0,6,55,6,0,0,5,0,0,0,0,4,54,24,0,0,18,0,0,0,5,17,64,4,0,0,4,0,0,0,0,2,63,2,0,0,2,0,0,0,0,1,58,1,0,0,1,0,0,0,0,1,59,3,0,0,3,0,0,0,0,2
P.S. 046 EDGAR ALLAN POE,40.858431,-73.887039,BRONX,No,0.906,265.5551,0.4,0.03,0.15,0.8,0.95,0.02,0.92,0.29,0.9,0.87,0.89,0.76,0.81,0.92,2.08,186,6,0,2,3,0,0,0,0,4,197,16,0,4,10,0,0,0,1,12,190,9,0,1,8,0,0,0,0,8,194,14,0,3,10,0,0,0,0,11,148,1,0,0,1,0,0,0,0,1,154,2,0,1,1,0,0,0,0,1,0,0,0,0,0,0,0,0,0,0,0,0,0,0,0,0,0,0,0,0,0,0,0,0,0,0,0,0,0,0,0,0,0,0,0,0,0,0,0,0,0,0,0,0,0,0,0,0,0,0,0,0,0,0,0,0,0,0,0,0
P.S. 051 BRONX NEW SCHOOL,40.850632,-73.88653,BRONX,No,0.714,325.3998,0.04,0.03,0.37,0.59,0.96,0.02,0.94,0.21,0.99,0.9,0.98,0.84,0.83,0.96,2.49,28,1,0,0,0,0,0,0,0,0,28,0,0,0,0,0,0,0,0,0,31,3,0,0,3,0,0,0,0,0,31,7,0,0,5,0,0,0,0,0,28,2,0,0,0,0,0,0,0,1,28,1,0,0,0,0,0,0,0,1,0,0,0,0,0,0,0,0,0,0,0,0,0,0,0,0,0,0,0,0,0,0,0,0,0,0,0,0,0,0,0,0,0,0,0,0,0,0,0,0,0,0,0,0,0,0,0,0,0,0,0,0,0,0,0,0,0,0,0,0
P.S./I.S. 54,40.864937,-73.887793,BRONX,No,0.896,245.6896,0.26,0.02,0.27,0.7,0.97,0.01,0.92,0.25,0.91,0.87,0.88,0.79,0.84,0.9,2.27,70,1,0,0,0,0,0,0,0,1,74,0,0,0,0,0,0,0,0,0,66,1,0,0,1,0,0,0,0,1,66,0,0,0,0,0,0,0,0,0,79,4,0,0,3,0,0,0,0,0,79,2,0,0,1,0,0,0,0,0,0,0,0,0,0,0,0,0,0,0,0,0,0,0,0,0,0,0,0,0,0,0,0,0,0,0,0,0,0,0,0,0,0,0,0,0,0,0,0,0,0,0,0,0,0,0,0,0,0,0,0,0,0,0,0,0,0,0,0,0
P.S. 056 NORWOOD HEIGHTS,40.872439,-73.875912,BRONX,No,0.821,361.3136,0.14,0.22,0.08,0.63,0.71,0.06,0.93,0.25,0.97,0.93,0.93,0.88,0.82,0.95,2.7,107,10,0,0,4,4,2,0,0,7,112,30,0,3,10,14,3,0,1,22,125,18,0,0,9,7,2,0,0,14,125,23,0,1,11,9,2,0,0,18,132,10,0,0,5,3,0,0,0,5,137,17,0,1,8,7,0,0,0,14,0,0,0,0,0,0,0,0,0,0,0,0,0,0,0,0,0,0,0,0,0,0,0,0,0,0,0,0,0,0,0,0,0,0,0,0,0,0,0,0,0,0,0,0,0,0,0,0,0,0,0,0,0,0,0,0,0,0,0,0
P.S. 059 THE COMMUNITY SCHOOL OF TECHNOLOGY,40.85306,-73.893421,BRONX,No,0.934,220.462,0.15,0.01,0.27,0.68,0.96,0.01,0.91,0.38,0.94,0.94,0.92,0.89,0.92,0.96,2.13,104,1,0,0,1,0,0,0,0,1,96,3,0,0,3,0,0,0,0,3,90,1,0,0,1,0,0,0,0,0,93,2,0,0,2,0,0,0,0,0,80,0,0,0,0,0,0,0,0,0,86,3,0,0,2,0,0,0,0,0,0,0,0,0,0,0,0,0,0,0,0,0,0,0,0,0,0,0,0,0,0,0,0,0,0,0,0,0,0,0,0,0,0,0,0,0,0,0,0,0,0,0,0,0,0,0,0,0,0,0,0,0,0,0,0,0,0,0,0,0
P.S. 081 ROBERT J. CHRISTEN,40.903455,-73.904682,BRONX,No,0.357,713.6679,0.08,0.08,0.1,0.49,0.59,0.3,0.94,0.17,0.93,0.92,0.99,0.83,0.9,0.96,2.81,73,16,0,0,7,0,9,0,0,2,71,34,0,0,12,2,17,0,0,6,85,18,0,1,7,0,9,0,0,6,86,23,0,2,8,0,7,0,0,7,75,10,0,1,2,0,5,0,0,0,74,20,0,0,4,3,10,0,0,7,0,0,0,0,0,0,0,0,0,0,0,0,0,0,0,0,0,0,0,0,0,0,0,0,0,0,0,0,0,0,0,0,0,0,0,0,0,0,0,0,0,0,0,0,0,0,0,0,0,0,0,0,0,0,0,0,0,0,0,0
P.S. 085 GREAT EXPECTATIONS,40.858852,-73.894829,BRONX,Yes,0.925,235.4889,0.22,0.01,0.29,0.69,0.98,0,0.91,0.35,0.84,0.82,0.82,0.7,0.81,0.85,2.02,154,0,0,0,0,0,0,0,0,0,160,7,0,0,6,0,0,0,1,7,159,4,0,1,2,0,0,0,0,4,162,3,0,1,2,0,0,0,1,3,159,1,0,0,0,0,0,0,0,0,167,0,0,0,0,0,0,0,0,0,0,0,0,0,0,0,0,0,0,0,0,0,0,0,0,0,0,0,0,0,0,0,0,0,0,0,0,0,0,0,0,0,0,0,0,0,0,0,0,0,0,0,0,0,0,0,0,0,0,0,0,0,0,0,0,0,0,0,0,0
P.S. 086 KINGSBRIDGE HEIGHTS,40.869847,-73.898263,BRONX,No,0.878,338.6507,0.3,0.04,0.08,0.86,0.94,0.01,0.94,0.2,0.95,0.95,0.93,0.88,0.83,0.96,2.47,192,6,0,0,5,1,0,0,0,5,197,32,0,1,27,3,1,0,2,26,242,50,0,4,39,6,0,0,1,35,249,72,0,5,58,6,0,0,7,54,224,22,0,3,17,0,0,0,0,17,233,42,0,2,32,0,0,0,1,33,195,17,0,2,13,0,0,0,0,12,202,40,0,5,31,0,0,0,2,29,0,0,0,0,0,0,0,0,0,0,0,0,0,0,0,0,0,0,0,0,0,0,0,0,0,0,0,0,0,0,0,0,0,0,0,0,0,0,0,0
P.S. 091 BRONX,40.858716,-73.907408,BRONX,No,0.903,299.1976,0.38,0.03,0.18,0.76,0.94,0.02,0.91,0.36,0.82,0.76,0.8,0.66,0.78,0.75,2.33,113,2,0,0,0,0,0,0,0,2,117,12,0,2,7,0,0,0,0,10,116,12,0,0,8,0,0,0,0,11,121,13,0,0,8,0,0,0,1,12,90,2,0,0,1,0,0,0,0,1,93,4,0,0,3,0,0,0,1,4,0,0,0,0,0,0,0,0,0,0,0,0,0,0,0,0,0,0,0,0,0,0,0,0,0,0,0,0,0,0,0,0,0,0,0,0,0,0,0,0,0,0,0,0,0,0,0,0,0,0,0,0,0,0,0,0,0,0,0,0
P.S. 094 KINGS COLLEGE SCHOOL,40.88051,-73.875267,BRONX,No,0.862,334.0463,0.26,0.11,0.16,0.68,0.84,0.03,0.91,0.34,0.86,0.86,0.88,0.74,0.82,0.93,2.17,171,2,0,0,2,0,0,0,0,2,182,2,0,1,0,1,0,0,0,2,191,8,0,1,4,0,0,0,0,7,197,11,0,1,4,0,0,0,1,10,172,2,0,1,1,0,0,0,0,2,178,3,0,1,0,1,0,0,0,3,0,0,0,0,0,0,0,0,0,0,0,0,0,0,0,0,0,0,0,0,0,0,0,0,0,0,0,0,0,0,0,0,0,0,0,0,0,0,0,0,0,0,0,0,0,0,0,0,0,0,0,0,0,0,0,0,0,0,0,0
P.S. 095 SHEILA MENCHER,40.883022,-73.891672,BRONX,No,0.786,423.5753,0.19,0.07,0.17,0.7,0.87,0.04,0.92,0.29,0.85,0.71,0.84,0.63,0.87,0.82,2.41,142,5,0,2,1,2,0,0,0,2,143,5,0,1,3,1,0,0,1,4,119,6,0,1,2,3,0,0,0,3,124,11,0,3,5,2,0,0,0,8,128,1,0,0,0,0,0,0,0,1,130,6,0,1,4,0,0,0,0,4,132,6,0,2,3,1,0,0,0,5,136,8,0,2,5,1,0,0,0,6,136,9,0,0,6,0,0,0,0,7,134,5,0,2,2,0,0,0,0,4,135,10,0,0,6,2,0,0,0,5,85,0,0,0,0,0,0,0,0,0
P.S. 159 LUIS MUNOZ MARIN BILING,40.855521,-73.893276,BRONX,No,0.907,233.0795,0.3,0,0.08,0.9,0.98,0.01,0.93,0.26,0.99,0.99,0.96,0.93,0.93,1,2.33,23,2,0,0,0,0,0,0,0,0,23,2,0,0,0,0,0,0,0,0,23,4,0,0,0,0,0,0,0,4,23,4,0,0,0,0,0,0,0,4,40,0,0,0,0,0,0,0,0,0,41,0,0,0,0,0,0,0,0,0,0,0,0,0,0,0,0,0,0,0,0,0,0,0,0,0,0,0,0,0,0,0,0,0,0,0,0,0,0,0,0,0,0,0,0,0,0,0,0,0,0,0,0,0,0,0,0,0,0,0,0,0,0,0,0,0,0,0,0,0
P.S. 205 FIORELLO LAGUARDIA,40.855742,-73.881407,BRONX,No,0.887,239.0792,0.2,0.01,0.15,0.79,0.94,0.05,0.93,0.26,0.88,0.91,0.93,0.8,0.83,0.94,2.4,174,1,0,0,1,0,0,0,0,1,176,9,0,0,9,0,0,0,0,7,171,4,0,1,3,0,0,0,0,4,179,3,0,0,2,0,1,0,1,2,153,5,0,1,2,0,2,0,0,3,157,12,0,1,8,0,3,0,0,11,0,0,0,0,0,0,0,0,0,0,0,0,0,0,0,0,0,0,0,0,0,0,0,0,0,0,0,0,0,0,0,0,0,0,0,0,0,0,0,0,0,0,0,0,0,0,0,0,0,0,0,0,0,0,0,0,0,0,0,0
P.S. 226,40.855568,-73.91622,BRONX,No,0.903,302.055,0.22,0.01,0.23,0.76,0.98,0,0.93,0.23,0.82,0.8,0.86,0.7,0.81,0.85,2.22,75,2,0,0,1,0,0,0,0,0,78,6,0,0,5,0,0,0,0,4,76,1,0,0,1,0,0,0,0,0,81,1,0,0,0,0,0,0,0,0,71,6,0,3,3,0,0,0,0,0,73,8,0,3,5,0,0,0,0,0,0,0,0,0,0,0,0,0,0,0,0,0,0,0,0,0,0,0,0,0,0,0,0,0,0,0,0,0,0,0,0,0,0,0,0,0,0,0,0,0,0,0,0,0,0,0,0,0,0,0,0,0,0,0,0,0,0,0,0,0
P.S. 246 POE CENTER,40.865975,-73.895314,BRONX,No,0.88,349.4139,0.27,0.02,0.1,0.85,0.95,0.02,0.92,0.3,0.81,0.82,0.86,0.67,0.84,0.91,2.13,130,1,0,0,1,0,0,0,0,1,137,10,0,2,6,0,1,0,1,10,105,1,0,0,1,0,0,0,0,1,107,4,0,0,3,0,0,0,0,4,108,1,0,0,1,0,0,0,0,1,114,0,0,0,0,0,0,0,0,0,0,0,0,0,0,0,0,0,0,0,0,0,0,0,0,0,0,0,0,0,0,0,0,0,0,0,0,0,0,0,0,0,0,0,0,0,0,0,0,0,0,0,0,0,0,0,0,0,0,0,0,0,0,0,0,0,0,0,0,0
"P.S. 279 CAPTAIN MANUEL RIVERA, JR.",40.854751,-73.905024,BRONX,No,0.918,263.131,0.29,0.03,0.17,0.79,0.96,0,0.93,0.26,0.9,0.92,0.88,0.89,0.87,0.93,2.26,129,4,0,1,1,0,0,0,0,4,132,6,0,1,4,0,0,0,1,6,106,0,0,0,0,0,0,0,0,0,109,8,0,0,8,0,0,0,0,0,100,1,0,0,1,0,0,0,0,0,104,1,0,0,1,0,0,0,0,0,119,5,0,0,4,0,0,0,0,5,123,15,0,4,10,0,0,0,0,13,110,3,0,0,2,0,0,0,0,2,110,4,0,0,2,0,0,0,0,3,111,7,0,0,7,0,0,0,0,6,116,6,0,0,4,0,0,0,0,6
P.S./M.S. 280 MOSHOLU PARKWAY,40.877179,-73.881546,BRONX,No,0.837,371.1654,0.12,0.11,0.09,0.74,0.83,0.05,0.93,0.22,0.95,0.92,0.96,0.84,0.81,0.94,2.48,98,3,0,0,1,1,1,0,0,3,101,8,0,1,4,2,1,0,0,7,96,8,0,0,7,1,0,0,0,0,97,15,0,0,12,3,0,0,0,0,126,3,0,0,1,1,1,0,0,3,126,5,0,1,2,1,1,0,0,5,97,7,0,0,3,4,0,0,0,6,98,21,0,0,14,5,0,0,0,17,96,6,0,0,4,2,0,0,0,0,95,2,0,0,0,2,0,0,0,0,85,7,0,1,4,2,0,0,0,7,79,6,0,1,2,2,1,0,0,6
P.S. 291,40.859165,-73.909733,BRONX,No,0.923,247.5336,0.24,0,0.11,0.88,0.99,0,0.91,0.3,0.97,0.96,0.97,0.93,0.86,0.98,2.4,109,5,0,1,4,0,0,0,0,0,112,15,0,2,13,0,0,0,1,0,109,17,0,0,14,0,0,0,1,17,113,21,0,0,18,0,0,0,2,21,98,4,0,0,3,0,0,0,0,4,102,8,0,0,7,0,0,0,1,8,0,0,0,0,0,0,0,0,0,0,0,0,0,0,0,0,0,0,0,0,0,0,0,0,0,0,0,0,0,0,0,0,0,0,0,0,0,0,0,0,0,0,0,0,0,0,0,0,0,0,0,0,0,0,0,0,0,0,0,0
P.S. 306,40.851349,-73.910712,BRONX,No,0.91,230.4461,0.17,0.01,0.28,0.7,0.98,0.01,0.92,0.27,0.86,0.76,0.88,0.69,0.84,0.85,2.19,138,3,0,1,2,0,0,0,0,3,141,3,0,0,3,0,0,0,2,3,124,5,0,0,3,0,0,0,0,1,131,6,0,0,3,0,0,0,0,4,107,3,0,0,2,0,0,0,0,2,111,4,0,0,3,0,0,0,0,3,0,0,0,0,0,0,0,0,0,0,0,0,0,0,0,0,0,0,0,0,0,0,0,0,0,0,0,0,0,0,0,0,0,0,0,0,0,0,0,0,0,0,0,0,0,0,0,0,0,0,0,0,0,0,0,0,0,0,0,0
LUISA PINEIRO FUENTES SCHOOL OF SCIENCE AND DISCOVERY,40.869145,-73.901836,BRONX,No,0.836,357.3686,0.25,0.08,0.08,0.82,0.91,0.01,0.95,0.16,0.91,0.93,0.9,0.85,0.84,0.96,2.27,55,0,0,0,0,0,0,0,0,0,55,1,0,0,1,0,0,0,0,1,56,4,0,1,3,0,0,0,0,4,58,6,0,0,4,0,0,0,0,4,54,1,0,0,1,0,0,0,0,0,54,3,0,0,2,1,0,0,0,1,0,0,0,0,0,0,0,0,0,0,0,0,0,0,0,0,0,0,0,0,0,0,0,0,0,0,0,0,0,0,0,0,0,0,0,0,0,0,0,0,0,0,0,0,0,0,0,0,0,0,0,0,0,0,0,0,0,0,0,0
P.S. 310 MARBLE HILL,40.872481,-73.905299,BRONX,No,0.874,365.2919,0.15,0.01,0.09,0.85,0.95,0.03,0.93,0.21,0.93,0.84,0.92,0.74,0.82,0.86,2.23,109,4,0,0,3,0,0,0,0,0,115,12,0,0,12,0,0,0,1,0,104,4,0,0,2,0,0,0,0,4,108,8,0,1,5,0,0,0,1,8,115,1,0,0,1,0,0,0,0,0,118,12,0,0,11,0,0,0,0,0,0,0,0,0,0,0,0,0,0,0,0,0,0,0,0,0,0,0,0,0,0,0,0,0,0,0,0,0,0,0,0,0,0,0,0,0,0,0,0,0,0,0,0,0,0,0,0,0,0,0,0,0,0,0,0,0,0,0,0,0
P.S. 315 LAB SCHOOL,40.857969,-73.903757,BRONX,No,0.868,267.3854,0.16,0.01,0.16,0.82,0.98,0.01,0.94,0.19,0.95,0.93,0.8,0.9,0.87,0.89,2.46,31,3,0,0,0,0,0,0,0,0,31,5,0,0,0,0,0,0,0,0,30,7,0,0,0,0,0,0,0,7,30,8,0,0,0,0,0,0,0,8,28,2,0,0,2,0,0,0,0,0,28,2,0,0,2,0,0,0,0,0,30,3,0,0,0,0,0,0,0,0,30,0,0,0,0,0,0,0,0,0,26,4,0,0,0,0,0,0,0,0,26,2,0,0,0,0,0,0,0,0,47,5,0,0,3,0,0,0,0,0,47,3,0,0,2,0,0,0,0,0
P.S. 340,40.869429,-73.897161,BRONX,No,0.909,338.3787,0.23,0.03,0.09,0.85,0.94,0.02,0.92,0.3,0.9,0.95,0.93,0.86,0.83,0.97,2.29,105,5,0,0,2,0,0,0,0,3,105,11,0,0,6,0,0,0,0,9,88,2,0,0,1,0,0,0,0,1,92,7,0,1,6,0,0,0,0,5,83,2,0,0,1,1,0,0,0,2,87,7,0,0,5,2,0,0,0,6,0,0,0,0,0,0,0,0,0,0,0,0,0,0,0,0,0,0,0,0,0,0,0,0,0,0,0,0,0,0,0,0,0,0,0,0,0,0,0,0,0,0,0,0,0,0,0,0,0,0,0,0,0,0,0,0,0,0,0,0
AMPARK NEIGHBORHOOD,40.883022,-73.891672,BRONX,No,0.421,544.469,0.03,0.05,0.13,0.6,0.73,0.2,0.94,0.11,0.95,0.95,0.94,0.91,0.91,0.96,2.74,71,8,0,1,2,2,3,0,0,1,71,28,0,2,14,3,9,0,0,11,73,11,0,3,5,0,0,0,0,5,74,10,0,0,4,0,3,0,0,3,44,6,0,0,0,0,3,0,0,1,45,9,0,1,3,1,4,0,0,1,0,0,0,0,0,0,0,0,0,0,0,0,0,0,0,0,0,0,0,0,0,0,0,0,0,0,0,0,0,0,0,0,0,0,0,0,0,0,0,0,0,0,0,0,0,0,0,0,0,0,0,0,0,0,0,0,0,0,0,0
P.S. 360,40.874718,-73.902209,BRONX,No,0.794,391.3883,0.14,0.02,0.11,0.84,0.95,0.03,0.91,0.31,0.88,0.82,0.9,0.67,0.79,0.86,2.22,60,3,0,0,2,0,0,0,0,0,60,3,0,0,1,0,0,0,0,0,67,4,0,0,4,0,0,0,0,3,69,1,0,0,1,0,0,0,0,1,57,2,0,0,1,0,0,0,0,2,59,2,0,0,2,0,0,0,0,2,0,0,0,0,0,0,0,0,0,0,0,0,0,0,0,0,0,0,0,0,0,0,0,0,0,0,0,0,0,0,0,0,0,0,0,0,0,0,0,0,0,0,0,0,0,0,0,0,0,0,0,0,0,0,0,0,0,0,0,0
"ELEMENTARY SCHOOL FOR MATH, SCIENCE, AND TECHNOLOGY",40.855211,-73.903264,BRONX,No,0.918,238.462,0.3,0,0.24,0.75,0.99,0,0.94,0.2,0.91,0.89,0.9,0.85,0.78,0.93,2.23,35,2,0,0,2,0,0,0,0,0,37,3,0,0,3,0,0,0,0,0,45,0,0,0,0,0,0,0,0,0,49,2,0,1,1,0,0,0,0,0,53,3,0,0,3,0,0,0,0,0,54,4,0,0,4,0,0,0,0,0,0,0,0,0,0,0,0,0,0,0,0,0,0,0,0,0,0,0,0,0,0,0,0,0,0,0,0,0,0,0,0,0,0,0,0,0,0,0,0,0,0,0,0,0,0,0,0,0,0,0,0,0,0,0,0,0,0,0,0,0
SCHOOL FOR ENVIRONMENTAL CITIZENSHIP,40.855211,-73.903264,BRONX,No,0.931,239.8138,0.29,0.01,0.15,0.83,0.98,0.01,0.93,0.23,0.83,0.83,0.89,0.72,0.83,0.86,2.23,67,3,0,0,2,0,0,0,0,3,70,3,0,0,2,0,0,0,0,3,80,2,0,0,2,0,0,0,0,2,81,2,0,0,2,0,0,0,0,2,66,1,0,0,1,0,0,0,0,1,68,1,0,0,1,0,0,0,0,1,0,0,0,0,0,0,0,0,0,0,0,0,0,0,0,0,0,0,0,0,0,0,0,0,0,0,0,0,0,0,0,0,0,0,0,0,0,0,0,0,0,0,0,0,0,0,0,0,0,0,0,0,0,0,0,0,0,0,0,0
P.S. 396,40.854367,-73.913024,BRONX,No,0.893,285.3968,0.18,0,0.22,0.76,0.98,0.02,0.93,0.23,0.86,0.87,0.87,0.81,0.87,0.9,2.3,52,1,0,0,1,0,0,0,0,0,55,3,0,0,1,0,0,0,0,2,54,2,0,0,2,0,0,0,0,2,54,2,0,0,1,0,0,0,0,2,47,3,0,0,2,0,0,0,0,2,48,5,0,0,3,0,0,0,0,2,0,0,0,0,0,0,0,0,0,0,0,0,0,0,0,0,0,0,0,0,0,0,0,0,0,0,0,0,0,0,0,0,0,0,0,0,0,0,0,0,0,0,0,0,0,0,0,0,0,0,0,0,0,0,0,0,0,0,0,0
P.S. 016 WAKEFIELD,40.90237,-73.854546,BRONX,No,0.772,457.4642,0.04,0.04,0.58,0.28,0.86,0.02,0.9,0.37,0.9,0.87,0.9,0.81,0.85,0.88,2.25,72,1,1,0,0,0,0,0,0,0,72,4,2,1,0,0,0,0,0,0,66,7,0,5,2,0,0,0,0,0,69,6,0,3,1,0,0,0,0,0,81,2,0,1,1,0,0,0,0,2,81,1,0,0,1,0,0,0,0,1,0,0,0,0,0,0,0,0,0,0,0,0,0,0,0,0,0,0,0,0,0,0,0,0,0,0,0,0,0,0,0,0,0,0,0,0,0,0,0,0,0,0,0,0,0,0,0,0,0,0,0,0,0,0,0,0,0,0,0,0
P.S. 019 JUDITH K. WEISS,40.899321,-73.867223,BRONX,No,0.35,628.4053,0.08,0.04,0.08,0.28,0.36,0.59,0.95,0.09,0.96,0.96,0.89,0.94,0.83,0.95,2.81,56,5,0,0,1,0,3,0,0,3,56,7,0,0,2,0,4,0,0,4,54,7,0,0,1,0,6,0,0,4,52,7,0,0,4,0,3,0,0,3,60,4,0,0,0,0,3,0,0,2,61,11,0,0,1,0,8,0,0,5,47,9,0,0,0,0,5,0,0,5,47,11,0,0,0,0,10,0,0,6,58,13,0,0,0,0,9,0,0,5,59,19,0,0,2,0,12,0,0,9,49,14,0,0,5,0,8,0,0,9,49,7,0,0,2,0,5,0,0,3
P.S. 021 PHILIP H. SHERIDAN,40.88794,-73.859406,BRONX,No,0.783,366.6241,0.07,0.01,0.7,0.24,0.94,0.01,0.9,0.39,0.88,0.91,0.86,0.76,0.79,0.93,2.23,106,0,0,0,0,0,0,0,0,0,104,1,0,1,0,0,0,0,0,1,106,4,0,2,1,0,0,0,0,3,105,9,0,5,2,0,0,0,0,6,102,0,0,0,0,0,0,0,0,0,101,0,0,0,0,0,0,0,0,0,0,0,0,0,0,0,0,0,0,0,0,0,0,0,0,0,0,0,0,0,0,0,0,0,0,0,0,0,0,0,0,0,0,0,0,0,0,0,0,0,0,0,0,0,0,0,0,0,0,0,0,0,0,0,0,0,0,0,0,0
P.S. 041 GUN HILL ROAD,40.874682,-73.867877,BRONX,No,0.833,354.7519,0.09,0.01,0.53,0.43,0.96,0.02,0.9,0.39,0.97,0.95,0.94,0.92,0.87,0.96,2.42,170,4,0,3,1,0,0,0,0,0,170,17,0,9,8,0,0,0,0,0,158,17,0,11,4,0,0,0,0,14,159,23,0,15,8,0,0,0,0,20,158,9,0,4,4,0,0,0,0,9,161,9,0,5,1,0,0,0,0,9,0,0,0,0,0,0,0,0,0,0,0,0,0,0,0,0,0,0,0,0,0,0,0,0,0,0,0,0,0,0,0,0,0,0,0,0,0,0,0,0,0,0,0,0,0,0,0,0,0,0,0,0,0,0,0,0,0,0,0,0
P.S. 068 BRONX,40.891483,-73.838736,BRONX,No,0.617,584.7718,0.01,0.02,0.77,0.19,0.95,0.01,0.93,0.23,0.87,0.81,0.87,0.7,0.82,0.8,2.34,114,1,0,1,0,0,0,0,0,0,116,3,0,2,0,0,0,0,0,1,123,10,0,9,1,0,0,0,0,7,123,10,0,8,1,0,0,0,0,3,131,6,0,4,1,0,0,0,0,3,131,10,0,7,2,0,0,0,0,4,0,0,0,0,0,0,0,0,0,0,0,0,0,0,0,0,0,0,0,0,0,0,0,0,0,0,0,0,0,0,0,0,0,0,0,0,0,0,0,0,0,0,0,0,0,0,0,0,0,0,0,0,0,0,0,0,0,0,0,0
P.S. 076 THE BENNINGTON SCHOOL,40.869164,-73.860906,BRONX,No,0.716,407.5979,0.13,0.03,0.45,0.42,0.87,0.08,0.93,0.25,0.88,0.79,0.88,0.67,0.83,0.85,2.25,160,2,0,0,1,0,1,0,0,2,159,9,0,4,4,0,1,0,0,6,177,7,0,4,3,0,0,0,0,6,180,8,0,4,3,1,0,0,1,4,177,5,0,2,1,1,1,0,0,3,179,7,0,2,1,2,1,1,0,4,0,0,0,0,0,0,0,0,0,0,0,0,0,0,0,0,0,0,0,0,0,0,0,0,0,0,0,0,0,0,0,0,0,0,0,0,0,0,0,0,0,0,0,0,0,0,0,0,0,0,0,0,0,0,0,0,0,0,0,0
P.S. 078 ANNE HUTCHINSON,40.878465,-73.85058,BRONX,No,0.759,502.0502,0.04,0.01,0.72,0.22,0.94,0.04,0.91,0.34,0.89,0.9,0.91,0.77,0.8,0.89,2.21,129,1,0,1,0,0,0,0,0,1,131,6,0,4,0,0,0,0,1,5,121,10,0,7,2,0,0,0,0,9,124,13,0,10,1,0,0,0,0,11,103,3,0,3,0,0,0,0,0,2,102,2,0,2,0,0,0,0,0,2,0,0,0,0,0,0,0,0,0,0,0,0,0,0,0,0,0,0,0,0,0,0,0,0,0,0,0,0,0,0,0,0,0,0,0,0,0,0,0,0,0,0,0,0,0,0,0,0,0,0,0,0,0,0,0,0,0,0,0,0
P.S. 083 DONALD HERTZ,40.849167,-73.858861,BRONX,No,0.611,515.2399,0.12,0.1,0.09,0.49,0.58,0.32,0.95,0.11,0.85,0.87,0.84,0.76,0.77,0.87,2.6,168,10,0,0,5,0,4,0,0,2,171,25,0,1,12,0,8,0,1,11,166,16,0,1,6,0,5,0,0,4,165,22,0,0,12,0,6,0,0,6,182,16,0,0,4,6,6,0,0,1,182,20,0,0,4,10,6,0,0,5,223,31,0,0,13,8,10,0,0,11,224,50,0,0,16,14,20,0,0,16,215,33,0,0,12,9,10,0,0,14,217,41,0,0,14,10,16,0,0,18,211,26,0,0,12,5,8,0,0,12,202,38,0,0,12,9,16,0,0,14
P.S. 087 BRONX,40.895363,-73.845825,BRONX,No,0.688,520.8062,0.02,0.06,0.71,0.16,0.87,0.01,0.94,0.18,0.91,0.85,0.84,0.82,0.82,0.92,2.32,94,3,0,3,0,0,0,0,0,3,98,6,0,5,0,0,0,0,0,6,114,6,0,5,1,0,0,0,0,6,115,14,0,11,2,1,0,0,0,14,106,5,0,4,0,1,0,0,0,3,105,7,0,3,2,1,0,0,0,5,0,0,0,0,0,0,0,0,0,0,0,0,0,0,0,0,0,0,0,0,0,0,0,0,0,0,0,0,0,0,0,0,0,0,0,0,0,0,0,0,0,0,0,0,0,0,0,0,0,0,0,0,0,0,0,0,0,0,0,0
P.S. 089 BRONX,40.862563,-73.859202,BRONX,No,0.737,421.2555,0.21,0.07,0.22,0.54,0.76,0.17,0.93,0.22,0.88,0.85,0.82,0.82,0.78,0.87,2.3,128,10,0,1,4,0,4,0,1,8,124,11,0,0,7,0,4,0,1,7,130,8,0,4,2,0,1,0,0,5,123,15,0,4,7,0,2,0,0,12,107,5,0,0,2,0,1,0,0,3,102,3,0,0,1,0,0,0,0,1,144,6,0,2,2,2,0,0,1,4,134,18,0,4,6,2,6,0,1,12,169,7,0,3,3,1,0,0,0,5,159,6,0,1,2,2,1,0,0,4,139,7,0,1,2,0,3,0,0,3,127,7,0,0,3,0,1,0,0,3
P.S. 096 RICHARD RODGERS,40.861185,-73.868521,BRONX,No,0.774,386.2361,0.08,0.04,0.25,0.61,0.86,0.09,0.91,0.32,0.95,0.94,0.96,0.86,0.82,0.94,2.41,150,7,0,1,3,0,2,0,0,4,152,10,0,2,5,0,2,0,0,5,162,13,0,4,6,0,2,0,0,9,165,18,0,6,6,0,5,0,0,9,165,18,0,5,8,0,2,0,0,7,169,26,0,6,11,0,5,0,0,13,0,0,0,0,0,0,0,0,0,0,0,0,0,0,0,0,0,0,0,0,0,0,0,0,0,0,0,0,0,0,0,0,0,0,0,0,0,0,0,0,0,0,0,0,0,0,0,0,0,0,0,0,0,0,0,0,0,0,0,0
P.S. 097 BRONX,40.863072,-73.846947,BRONX,No,0.541,664.8821,0.04,0.17,0.28,0.36,0.65,0.16,0.94,0.2,0.93,0.81,0.92,0.68,0.87,0.86,2.53,115,5,0,1,1,2,0,0,0,5,116,12,0,4,2,5,0,0,0,12,113,20,0,5,8,3,0,0,0,14,113,21,0,2,14,2,0,0,1,13,101,1,0,0,0,0,1,0,0,0,102,4,0,0,1,0,2,0,0,3,0,0,0,0,0,0,0,0,0,0,0,0,0,0,0,0,0,0,0,0,0,0,0,0,0,0,0,0,0,0,0,0,0,0,0,0,0,0,0,0,0,0,0,0,0,0,0,0,0,0,0,0,0,0,0,0,0,0,0,0
P.S. 103 HECTOR FONTANEZ,40.892319,-73.861898,BRONX,No,0.813,326.7109,0.18,0.03,0.53,0.37,0.9,0.03,0.91,0.35,0.94,0.94,0.94,0.88,0.81,0.95,2.34,208,8,0,5,2,1,0,0,0,8,209,11,1,5,4,1,0,0,0,11,177,7,1,5,1,0,0,0,0,6,180,8,1,3,4,0,0,0,0,5,147,5,1,4,0,0,0,0,0,3,151,2,0,1,1,0,0,0,0,1,0,0,0,0,0,0,0,0,0,0,0,0,0,0,0,0,0,0,0,0,0,0,0,0,0,0,0,0,0,0,0,0,0,0,0,0,0,0,0,0,0,0,0,0,0,0,0,0,0,0,0,0,0,0,0,0,0,0,0,0
P.S. 105 SEN ABRAHAM BERNSTEIN,40.852767,-73.866401,BRONX,No,0.802,410.0293,0.2,0.08,0.11,0.66,0.77,0.13,0.93,0.23,0.88,0.77,0.88,0.64,0.73,0.8,2.42,239,10,0,1,4,2,1,0,0,8,244,31,0,5,14,6,4,0,1,23,191,22,0,7,11,0,1,0,1,18,199,34,0,4,16,0,5,0,2,29,210,12,0,3,5,0,3,0,0,7,217,12,0,1,6,0,2,0,0,10,0,0,0,0,0,0,0,0,0,0,0,0,0,0,0,0,0,0,0,0,0,0,0,0,0,0,0,0,0,0,0,0,0,0,0,0,0,0,0,0,0,0,0,0,0,0,0,0,0,0,0,0,0,0,0,0,0,0,0,0
